objectid,featuretype,descripton,class,facility_name,facility_operationalstatus,facility_address,abs_suburb,facility_state,abs_postcode,facility_attribute_source,facility_attribute_date,facility_source,facility_date,facility_spatial_confidence,facility_revised,facility_lat,facility_long,validated,gnaf_building_name,gnaf_address_detail_pid,gnaf_formatted_address,gnaf_confidence,gnaf_postcode,gnaf_suburb,distance_to_gnaf,gnaf_lat,gnaf_long,comment_,lhn_code
661,EMERGENCY FACILITY,"An emergency management facility from which a particular agency’s resources are commanded, coordinated and assigned to an incident or emergency",AMBULANCE STATION,ADELAIDE MOTOR CYCLE DIVISION,OPERATIONAL,387 REGENCY ROAD,PROSPECT,SOUTH AUSTRALIA,5082,HTTP://WWW.STJOHNSA.COM.AU,,HTTP://WWW.STJOHNSA.COM.AU,,,2018-08-18T00:00:00Z,-34.87451583,138.5905711,,,GASA_415419889,387 REGENCY ROAD,1,5082,PROSPECT,0,-34.8745158,138.5905713,,CALHN
543,EMERGENCY FACILITY,"An emergency management facility from which a particular agency’s resources are commanded, coordinated and assigned to an incident or emergency",AMBULANCE STATION,ALDINGA STATION,OPERATIONAL,186-196 PORT ROAD,ALDINGA,SOUTH AUSTRALIA,5173,HTTP://WWW.SAAMBULANCE.COM.AU,,HTTP://WWW.SAAMBULANCE.COM.AU,,,2018-08-18T00:00:00Z,-35.267696,138.482227,,,GASA_425448412,186-196 PORT ROAD,0,5173,ALDINGA,110,-35.26846108,138.4814628,,SALHN
544,EMERGENCY FACILITY,"An emergency management facility from which a particular agency’s resources are commanded, coordinated and assigned to an incident or emergency",AMBULANCE STATION,AMERICAN RIVER STATION,OPERATIONAL,LOT 13 BUICK DRIVE,AMERICAN RIVER,SOUTH AUSTRALIA,5221,HTTP://WWW.SAAMBULANCE.COM.AU,,HTTP://WWW.SAAMBULANCE.COM.AU,,,2018-08-18T00:00:00Z,-35.782735,137.769302,,,GASA_425844244,16 BUICK DRIVE,1,5221,AMERICAN RIVER,4,-35.78273595,137.7692596,,BFHLHN
548,EMERGENCY FACILITY,"An emergency management facility from which a particular agency’s resources are commanded, coordinated and assigned to an incident or emergency",AMBULANCE STATION,ARDROSSAN DIVISION,OPERATIONAL,NORTH TERRACE,ARDROSSAN,SOUTH AUSTRALIA,5571,HTTP://WWW.STJOHNSA.COM.AU,,HTTP://WWW.STJOHNSA.COM.AU,,,2018-08-18T00:00:00Z,-34.42093473,137.9163194,,,GASA_719248884,LOT 423 FAIRWAY DRIVE,-1,5571,ARDROSSAN,5,-34.42089172,137.916313,,YNLHN
547,EMERGENCY FACILITY,"An emergency management facility from which a particular agency’s resources are commanded, coordinated and assigned to an incident or emergency",AMBULANCE STATION,ARDROSSAN STATION,OPERATIONAL,NORTH TERRACE,ARDROSSAN,SOUTH AUSTRALIA,5571,HTTP://WWW.SAAMBULANCE.COM.AU,,HTTP://WWW.SAAMBULANCE.COM.AU,,,2018-08-18T00:00:00Z,-34.420843,137.916123,,,GASA_719248884,LOT 423 FAIRWAY DRIVE,-1,5571,ARDROSSAN,18,-34.42089172,137.916313,,YNLHN
549,EMERGENCY FACILITY,"An emergency management facility from which a particular agency’s resources are commanded, coordinated and assigned to an incident or emergency",AMBULANCE STATION,ARNO BAY DIVISION,OPERATIONAL,ALEXANDRIA TERRACE,ARNO BAY,SOUTH AUSTRALIA,5603,HTTP://WWW.STJOHNSA.COM.AU,,HTTP://WWW.STJOHNSA.COM.AU,,,2018-08-18T00:00:00Z,-33.91278327,136.5691811,,,GASA_424286792,LOT 321 ALEXANDRIA TERRACE,0,5603,ARNO BAY,25,-33.91270425,136.5694295,,EFNLHN
550,EMERGENCY FACILITY,"An emergency management facility from which a particular agency’s resources are commanded, coordinated and assigned to an incident or emergency",AMBULANCE STATION,ASHFORD STATION,OPERATIONAL,24-28 ALEXANDER AVENUE,ASHFORD,SOUTH AUSTRALIA,5035,HTTP://WWW.SAAMBULANCE.COM.AU,,HTTP://WWW.SAAMBULANCE.COM.AU,,,2018-08-18T00:00:00Z,-34.946225,138.577191,,,GASA_424345022,24 ALEXANDER AVENUE,1,5035,ASHFORD,61,-34.94661222,138.5767202,,CALHN
551,EMERGENCY FACILITY,"An emergency management facility from which a particular agency’s resources are commanded, coordinated and assigned to an incident or emergency",AMBULANCE STATION,BALAKLAVA DIVISION,OPERATIONAL,14 WAR MEMORIAL DRIVE,BALAKLAVA,SOUTH AUSTRALIA,5461,HTTP://WWW.STJOHNSA.COM.AU,,HTTP://WWW.STJOHNSA.COM.AU,,,2018-08-18T00:00:00Z,-34.14017004,138.4192923,,,GASA_415459379,14 WAR MEMORIAL DRIVE,1,5461,BALAKLAVA,0,-34.14017,138.4192924,,YNLHN
552,EMERGENCY FACILITY,"An emergency management facility from which a particular agency’s resources are commanded, coordinated and assigned to an incident or emergency",AMBULANCE STATION,BALAKLAVA STATION,OPERATIONAL,WAR MEMORIAL DRIVE,BALAKLAVA,SOUTH AUSTRALIA,5461,HTTP://WWW.SAAMBULANCE.COM.AU,,HTTP://WWW.SAAMBULANCE.COM.AU,,,2018-08-18T00:00:00Z,-34.140076,138.41888,,,GASA_415459379,14 WAR MEMORIAL DRIVE,1,5461,BALAKLAVA,39,-34.14017,138.4192924,,YNLHN
605,EMERGENCY FACILITY,"An emergency management facility from which a particular agency’s resources are commanded, coordinated and assigned to an incident or emergency",AMBULANCE STATION,BAND DIVISION,OPERATIONAL,75 SMART ROAD,MODBURY,SOUTH AUSTRALIA,5092,HTTP://WWW.STJOHNSA.COM.AU,,HTTP://WWW.STJOHNSA.COM.AU,,,2018-08-18T00:00:00Z,-34.83358654,138.6917235,,,GASA_415235409,75 SMART ROAD,1,5092,MODBURY,0,-34.8335866,138.6917236,,NALHN
554,EMERGENCY FACILITY,"An emergency management facility from which a particular agency’s resources are commanded, coordinated and assigned to an incident or emergency",AMBULANCE STATION,BARMERA STATION,OPERATIONAL,LOT 674 LANGDON TERRACE,BARMERA,SOUTH AUSTRALIA,5345,HTTP://WWW.SAAMBULANCE.COM.AU,,HTTP://WWW.SAAMBULANCE.COM.AU,,,2018-08-18T00:00:00Z,-34.252998,140.466475,,,GASA_424185404,LOT 674 LANGDON TERRACE,0,5345,BARMERA,23,-34.25312303,140.4666717,,RMCLHN
546,EMERGENCY FACILITY,"An emergency management facility from which a particular agency’s resources are commanded, coordinated and assigned to an incident or emergency",AMBULANCE STATION,BAROSSA DIVISION,OPERATIONAL,27 SCHILLING STREET,ANGASTON,SOUTH AUSTRALIA,5353,HTTP://WWW.STJOHNSA.COM.AU,,HTTP://WWW.STJOHNSA.COM.AU,,,2018-08-18T00:00:00Z,-34.50329456,139.0523685,,,GASA_415338743,27 SCHILLING STREET,1,5353,ANGASTON,3,-34.5032821,139.0524006,,BFHLHN
545,EMERGENCY FACILITY,"An emergency management facility from which a particular agency’s resources are commanded, coordinated and assigned to an incident or emergency",AMBULANCE STATION,BAROSSA VALLEY STATION,OPERATIONAL,27 SCHILLING STREET,ANGASTON,SOUTH AUSTRALIA,5353,HTTP://WWW.SAAMBULANCE.COM.AU,,HTTP://WWW.SAAMBULANCE.COM.AU,,,2018-08-18T00:00:00Z,-34.503329,139.052268,,,GASA_415338743,27 SCHILLING STREET,1,5353,ANGASTON,13,-34.5032821,139.0524006,,BFHLHN
553,EMERGENCY FACILITY,"An emergency management facility from which a particular agency’s resources are commanded, coordinated and assigned to an incident or emergency",AMBULANCE STATION,BERRI / BARMERA DIVISION,OPERATIONAL,LOT 674 LANGDON TERRACE,BARMERA,SOUTH AUSTRALIA,5345,HTTP://WWW.STJOHNSA.COM.AU,,HTTP://WWW.STJOHNSA.COM.AU,,,2018-08-18T00:00:00Z,-34.25310874,140.4666624,,,GASA_424185404,LOT 674 LANGDON TERRACE,0,5345,BARMERA,2,-34.25312303,140.4666717,,RMCLHN
564,EMERGENCY FACILITY,"An emergency management facility from which a particular agency’s resources are commanded, coordinated and assigned to an incident or emergency",AMBULANCE STATION,BERRI STATION,OPERATIONAL,LOT 801 CORNWALL STREET,BERRI,SOUTH AUSTRALIA,5343,HTTP://WWW.SAAMBULANCE.COM.AU,,HTTP://WWW.SAAMBULANCE.COM.AU,,,2018-08-18T00:00:00Z,-34.277383,140.601802,,SA AMBULANCE SERVIE,GASA_417038982,25 CORNWALL STREET,1,5343,BERRI,25,-34.27731706,140.6020661,,RMCLHN
565,EMERGENCY FACILITY,"An emergency management facility from which a particular agency’s resources are commanded, coordinated and assigned to an incident or emergency",AMBULANCE STATION,BLACKWOOD DIVISION,OPERATIONAL,155 MAIN ROAD,BLACKWOOD,SOUTH AUSTRALIA,5051,HTTP://WWW.STJOHNSA.COM.AU,,HTTP://WWW.STJOHNSA.COM.AU,,,2018-08-18T00:00:00Z,-35.01325699,138.6215716,,,GASA_415471575,155 MAIN ROAD,1,5051,BLACKWOOD,1,-35.01325039,138.6215629,,SALHN
566,EMERGENCY FACILITY,"An emergency management facility from which a particular agency’s resources are commanded, coordinated and assigned to an incident or emergency",AMBULANCE STATION,BOOLEROO CENTRE STATION,OPERATIONAL,3-13 STEPHENS STREET,BOOLEROO CENTRE,SOUTH AUSTRALIA,5482,HTTP://WWW.SAAMBULANCE.COM.AU,,HTTP://WWW.SAAMBULANCE.COM.AU,,,2018-08-18T00:00:00Z,-32.877038,138.350829,,HOSPITAL,GASA_425452329,3-13 STEPHENS STREET,1,5482,BOOLEROO CENTRE,76,-32.87757512,138.3513373,,YNLHN
567,EMERGENCY FACILITY,"An emergency management facility from which a particular agency’s resources are commanded, coordinated and assigned to an incident or emergency",AMBULANCE STATION,BORDERTOWN STATION,OPERATIONAL,SEC 980 TATIARA TERRACE,BORDERTOWN,SOUTH AUSTRALIA,5268,HTTP://WWW.SAAMBULANCE.COM.AU,,HTTP://WWW.SAAMBULANCE.COM.AU,,,2018-08-18T00:00:00Z,-36.308215,140.769802,,,GASA_424406152,LOT 980 TATIARA TERRACE,-1,5268,BORDERTOWN,3,-36.30824485,140.7697978,,LCLHN
572,EMERGENCY FACILITY,"An emergency management facility from which a particular agency’s resources are commanded, coordinated and assigned to an incident or emergency",AMBULANCE STATION,BROOKLYN PARK STATION,OPERATIONAL,65-69 MORPHETT ROAD,CAMDEN PARK,SOUTH AUSTRALIA,5038,HTTP://WWW.SAAMBULANCE.COM.AU,,HTTP://WWW.SAAMBULANCE.COM.AU,,,2018-08-18T00:00:00Z,-34.966342,138.537372,,SAMFS,GASA_415011985,65-69 MORPHETT ROAD,2,5038,CAMDEN PARK,14,-34.96645212,138.5374451,,CALHN
689,EMERGENCY FACILITY,"An emergency management facility from which a particular agency’s resources are commanded, coordinated and assigned to an incident or emergency",AMBULANCE STATION,BURRA STATION,OPERATIONAL,MARKET SQ,BURRA,SOUTH AUSTRALIA,5417,HTTP://WWW.SAAMBULANCE.COM.AU,,HTTP://WWW.SAAMBULANCE.COM.AU,,,2018-08-18T00:00:00Z,-33.673361,138.930161,,,,,,,,,,,NO GNAF POINT,YNLHN
571,EMERGENCY FACILITY,"An emergency management facility from which a particular agency’s resources are commanded, coordinated and assigned to an incident or emergency",AMBULANCE STATION,CAMDEN PARK STATION,OPERATIONAL,65-69 MORPHETT ROAD,CAMDEN PARK,SOUTH AUSTRALIA,5038,HTTP://WWW.SAAMBULANCE.COM.AU,,HTTP://WWW.SAAMBULANCE.COM.AU,,,2018-08-18T00:00:00Z,-34.966356,138.537363,,SAMFS,GASA_415011985,65-69 MORPHETT ROAD,2,5038,CAMDEN PARK,13,-34.96645212,138.5374451,,SALHN
637,EMERGENCY FACILITY,"An emergency management facility from which a particular agency’s resources are commanded, coordinated and assigned to an incident or emergency",AMBULANCE STATION,CAMPBELLTOWN DIVISION,OPERATIONAL,MONTACUTE ROAD,NEWTON,SOUTH AUSTRALIA,5074,HTTP://WWW.STJOHNSA.COM.AU,,HTTP://WWW.STJOHNSA.COM.AU,,,2018-08-18T00:00:00Z,-34.88816374,138.6767238,,,GASA_424318622,LOT 643 MONTACUTE ROAD,0,5074,NEWTON,5,-34.8881556,138.6767737,,CALHN
671,EMERGENCY FACILITY,"An emergency management facility from which a particular agency’s resources are commanded, coordinated and assigned to an incident or emergency",AMBULANCE STATION,CAMPBELLTOWN STATION,OPERATIONAL,MONTACUTE ROAD,NEWTON,SOUTH AUSTRALIA,5074,HTTP://WWW.SAAMBULANCE.COM.AU,,HTTP://WWW.SAAMBULANCE.COM.AU,,,2018-08-18T00:00:00Z,-34.888205,138.676769,,,GASA_424318622,LOT 643 MONTACUTE ROAD,0,5074,NEWTON,6,-34.8881556,138.6767737,,CALHN
573,EMERGENCY FACILITY,"An emergency management facility from which a particular agency’s resources are commanded, coordinated and assigned to an incident or emergency",AMBULANCE STATION,CEDUNA STATION,OPERATIONAL,32 POYNTON STREET,CEDUNA,SOUTH AUSTRALIA,5690,HTTP://WWW.SAAMBULANCE.COM.AU,,HTTP://WWW.SAAMBULANCE.COM.AU,,,2018-08-18T00:00:00Z,-32.127697,133.674022,,,GASA_415071011,32 POYNTON STREET,1,5690,CEDUNA,14,-32.12766135,133.6741614,,EFNLHN
575,EMERGENCY FACILITY,"An emergency management facility from which a particular agency’s resources are commanded, coordinated and assigned to an incident or emergency",AMBULANCE STATION,CLARE DIVISION,OPERATIONAL,324 MAIN NORTH ROAD,CLARE,SOUTH AUSTRALIA,5453,HTTP://WWW.STJOHNSA.COM.AU,,HTTP://WWW.STJOHNSA.COM.AU,,,2018-08-18T00:00:00Z,-33.83031737,138.6081346,,,GASA_415502095,324 MAIN NORTH ROAD,1,5453,CLARE,0,-33.8303174,138.6081346,,YNLHN
574,EMERGENCY FACILITY,"An emergency management facility from which a particular agency’s resources are commanded, coordinated and assigned to an incident or emergency",AMBULANCE STATION,CLARE STATION,OPERATIONAL,WEBB STREET,CLARE,SOUTH AUSTRALIA,5453,HTTP://WWW.SAAMBULANCE.COM.AU,,HTTP://WWW.SAAMBULANCE.COM.AU,,,2018-08-18T00:00:00Z,-33.830068,138.613643,,,GASA_424339852,LOT 10 WEBB STREET,0,5453,CLARE,17,-33.82997781,138.6137911,,YNLHN
576,EMERGENCY FACILITY,"An emergency management facility from which a particular agency’s resources are commanded, coordinated and assigned to an incident or emergency",AMBULANCE STATION,CLEVE STATION,OPERATIONAL,20 FOURTH STREET,CLEVE,SOUTH AUSTRALIA,5640,HTTP://WWW.SAAMBULANCE.COM.AU,,HTTP://WWW.SAAMBULANCE.COM.AU,,,2018-08-18T00:00:00Z,-33.700868,136.493858,,,GASA_415501293,20 FOURTH STREET,1,5640,CLEVE,18,-33.7008645,136.4936643,,EFNLHN
577,EMERGENCY FACILITY,"An emergency management facility from which a particular agency’s resources are commanded, coordinated and assigned to an incident or emergency",AMBULANCE STATION,COFFIN BAY STATION,OPERATIONAL,165-181 ESPLANADE,COFFIN BAY,SOUTH AUSTRALIA,5607,HTTP://WWW.SAAMBULANCE.COM.AU,,HTTP://WWW.SAAMBULANCE.COM.AU,,,2018-08-18T00:00:00Z,-34.622621,135.463458,,,GASA_425436498,165-181 ESPLANADE ,1,5607,COFFIN BAY,122,-34.62152262,135.4634353,,EFNLHN
520,EMERGENCY FACILITY,"An emergency management facility from which a particular agency’s resources are commanded, coordinated and assigned to an incident or emergency",AMBULANCE STATION,COOBER PEDY STATION,OPERATIONAL,LOT 100 MCKENZIE ROAD,COOBER PEDY,SOUTH AUSTRALIA,5723,HTTP://WWW.SAAMBULANCE.COM.AU,,HTTP://WWW.SAAMBULANCE.COM.AU,,,2018-08-18T00:00:00Z,-29.006565,134.759829,,,GASA_424191041,LOT 100 MCKENZIE ROAD,0,5723,COOBER PEDY,84,-29.00598266,134.7592799,,EFNLHN
521,EMERGENCY FACILITY,"An emergency management facility from which a particular agency’s resources are commanded, coordinated and assigned to an incident or emergency",AMBULANCE STATION,COOMANDOOK STATION,OPERATIONAL,2151 OLD DUKES HIGHWAY,COOMANDOOK,SOUTH AUSTRALIA,5261,HTTP://WWW.SAAMBULANCE.COM.AU,,HTTP://WWW.SAAMBULANCE.COM.AU,,,2018-08-18T00:00:00Z,-35.472473,139.701521,,,GASA_424705571,2151 OLD DUKES HIGHWAY,2,5261,COOMANDOOK,598,-35.46913018,139.6963519,,RMCLHN
522,EMERGENCY FACILITY,"An emergency management facility from which a particular agency’s resources are commanded, coordinated and assigned to an incident or emergency",AMBULANCE STATION,COONALPYN STATION,OPERATIONAL,9-11 POYNTZ TERRACE,COONALPYN,SOUTH AUSTRALIA,5265,HTTP://WWW.SAAMBULANCE.COM.AU,,HTTP://WWW.SAAMBULANCE.COM.AU,,,2018-08-18T00:00:00Z,-35.694125,139.855838,,,GASA_415736564,9-11 POYNTZ TERRACE,1,5265,COONALPYN,18,-35.69395888,139.8558461,,RMCLHN
523,EMERGENCY FACILITY,"An emergency management facility from which a particular agency’s resources are commanded, coordinated and assigned to an incident or emergency",AMBULANCE STATION,COWELL STATION,OPERATIONAL,1 LINCOLN HIGHWAY,COWELL,SOUTH AUSTRALIA,5602,HTTP://WWW.SAAMBULANCE.COM.AU,,HTTP://WWW.SAAMBULANCE.COM.AU,,,2018-08-18T00:00:00Z,-33.680711,136.922311,,,GASA_415713068,1 LINCOLN HIGHWAY,1,5602,COWELL,10,-33.6807267,136.9224193,,EFNLHN
524,EMERGENCY FACILITY,"An emergency management facility from which a particular agency’s resources are commanded, coordinated and assigned to an incident or emergency",AMBULANCE STATION,CRYSTAL BROOK STATION,OPERATIONAL,35 BRANDIS STREET,CRYSTAL BROOK,SOUTH AUSTRALIA,5523,HTTP://WWW.SAAMBULANCE.COM.AU,,HTTP://WWW.SAAMBULANCE.COM.AU,,,2018-08-18T00:00:00Z,-33.352945,138.208348,,,GASA_415513248,35 BRANDIS STREET,1,5523,CRYSTAL BROOK,13,-33.3528425,138.2084185,,YNLHN
525,EMERGENCY FACILITY,"An emergency management facility from which a particular agency’s resources are commanded, coordinated and assigned to an incident or emergency",AMBULANCE STATION,CUMMINS STATION,OPERATIONAL,19 TUMBY BAY ROAD,CUMMINS,SOUTH AUSTRALIA,5631,HTTP://WWW.SAAMBULANCE.COM.AU,,HTTP://WWW.SAAMBULANCE.COM.AU,,,2018-08-18T00:00:00Z,-34.263653,135.732484,,,GASA_423016988,19 TUMBY BAY ROAD,1,5631,CUMMINS,2,-34.263675,135.7324839,,EFNLHN
609,EMERGENCY FACILITY,"An emergency management facility from which a particular agency’s resources are commanded, coordinated and assigned to an incident or emergency",AMBULANCE STATION,ELLISTON STATION,OPERATIONAL,4-6 MEMORIAL DRIVE,ELLISTON,SOUTH AUSTRALIA,5670,HTTP://WWW.SAAMBULANCE.COM.AU,,HTTP://WWW.SAAMBULANCE.COM.AU,,,2018-08-18T00:00:00Z,-33.648014,134.892787,,,GASA_425444771,4-6 MEMORIAL DRIVE,0,5670,ELLISTON,22,-33.64785034,134.8926604,,EFNLHN
610,EMERGENCY FACILITY,"An emergency management facility from which a particular agency’s resources are commanded, coordinated and assigned to an incident or emergency",AMBULANCE STATION,EUDUNDA STATION,OPERATIONAL,BRUCE STREET,EUDUNDA,SOUTH AUSTRALIA,5374,HTTP://WWW.SAAMBULANCE.COM.AU,,HTTP://WWW.SAAMBULANCE.COM.AU,,,2018-08-18T00:00:00Z,-34.17101,139.084078,,,GASA_424292109,LOT 26 BRUCE STREET,-1,5374,EUDUNDA,4,-34.17099147,139.0841144,,BFHLHN
611,EMERGENCY FACILITY,"An emergency management facility from which a particular agency’s resources are commanded, coordinated and assigned to an incident or emergency",AMBULANCE STATION,FULHAM STATION,OPERATIONAL,396 GRANGE ROAD,FULHAM GARDENS,SOUTH AUSTRALIA,5024,HTTP://WWW.SAAMBULANCE.COM.AU,,HTTP://WWW.SAAMBULANCE.COM.AU,,,2018-08-18T00:00:00Z,-34.906515,138.519573,,,GASA_415755354,396 GRANGE ROAD,1,5024,FULHAM GARDENS,69,-34.90713972,138.5196159,,CALHN
612,EMERGENCY FACILITY,"An emergency management facility from which a particular agency’s resources are commanded, coordinated and assigned to an incident or emergency",AMBULANCE STATION,GAWLER DIVISION,OPERATIONAL,MURRAY STREET,GAWLER,SOUTH AUSTRALIA,5118,HTTP://WWW.STJOHNSA.COM.AU,,HTTP://WWW.STJOHNSA.COM.AU,,,2018-08-18T00:00:00Z,-34.60588212,138.7497274,,,GASA_425110051,LOT 96 MURRAY STREET,0,5118,GAWLER,81,-34.60516075,138.7498791,,BFHLHN
613,EMERGENCY FACILITY,"An emergency management facility from which a particular agency’s resources are commanded, coordinated and assigned to an incident or emergency",AMBULANCE STATION,GAWLER STATION,OPERATIONAL,1B FIRST STREET,GAWLER SOUTH,SOUTH AUSTRALIA,5118,HTTP://WWW.SAAMBULANCE.COM.AU,,HTTP://WWW.SAAMBULANCE.COM.AU,,,2018-08-18T00:00:00Z,-34.60750475,138.7488046,,,GASA_415461635,1 FIRST STREET,2,5118,GAWLER SOUTH,6,-34.6075498,138.7488284,,BFHLHN
674,EMERGENCY FACILITY,"An emergency management facility from which a particular agency’s resources are commanded, coordinated and assigned to an incident or emergency",AMBULANCE STATION,GILBERT VALLEY DIVISION,OPERATIONAL,16 TORRENS ROAD,RIVERTON,SOUTH AUSTRALIA,5412,HTTP://WWW.STJOHNSA.COM.AU,,HTTP://WWW.STJOHNSA.COM.AU,,,2018-08-18T00:00:00Z,-34.15690952,138.7482413,,,GASA_415485155,16 TORRENS ROAD,1,5412,RIVERTON,0,-34.1569093,138.7482414,,YNLHN
614,EMERGENCY FACILITY,"An emergency management facility from which a particular agency’s resources are commanded, coordinated and assigned to an incident or emergency",AMBULANCE STATION,GLADSTONE STATION,OPERATIONAL,24 HIGH STREET,GLADSTONE,SOUTH AUSTRALIA,5473,HTTP://WWW.SAAMBULANCE.COM.AU,,HTTP://WWW.SAAMBULANCE.COM.AU,,,2018-08-18T00:00:00Z,-33.268721,138.354,,,GASA_415701675,24 HIGH STREET,1,5473,GLADSTONE,9,-33.2687261,138.3539003,,YNLHN
690,EMERGENCY FACILITY,"An emergency management facility from which a particular agency’s resources are commanded, coordinated and assigned to an incident or emergency",AMBULANCE STATION,GLENELG DIVISION,OPERATIONAL,BRIGHTON ROAD,GLENELG EAST,SOUTH AUSTRALIA,5045,HTTP://WWW.STJOHNSA.COM.AU,,HTTP://WWW.STJOHNSA.COM.AU,,,2018-08-18T00:00:00Z,-34.98428969,138.5229059,,,,,,,,,,,NO GNAF POINT,SALHN
739,EMERGENCY FACILITY,"An emergency management facility from which a particular agency’s resources are commanded, coordinated and assigned to an incident or emergency",AMBULANCE STATION,GOLDEN GROVE CADET DIVISION,OPERATIONAL,LOT 591 ENDEAVOUR DRIVE,WYNN VALE,SOUTH AUSTRALIA,5127,HTTP://WWW.STJOHNSA.COM.AU,,HTTP://WWW.STJOHNSA.COM.AU,,,2018-08-18T00:00:00Z,-34.7975235,138.6818474,,,GASA_415018676,LOT 591 ENDEAVOUR DRIVE,-1,5127,WYNN VALE,26,-34.79772436,138.6816927,,NALHN
622,EMERGENCY FACILITY,"An emergency management facility from which a particular agency’s resources are commanded, coordinated and assigned to an incident or emergency",AMBULANCE STATION,GOOLWA DIVISION,OPERATIONAL,13 GARDINER STREET,GOOLWA,SOUTH AUSTRALIA,5214,HTTP://WWW.STJOHNSA.COM.AU,,HTTP://WWW.STJOHNSA.COM.AU,,,2018-08-18T00:00:00Z,-35.49921232,138.7798063,,,GASA_415033151,13 GARDINER STREET,1,5214,GOOLWA,2,-35.49922596,138.7797896,,BFHLHN
623,EMERGENCY FACILITY,"An emergency management facility from which a particular agency’s resources are commanded, coordinated and assigned to an incident or emergency",AMBULANCE STATION,GOOLWA STATION,OPERATIONAL,13 GARDINER STREET,GOOLWA,SOUTH AUSTRALIA,5214,HTTP://WWW.SAAMBULANCE.COM.AU,,HTTP://WWW.SAAMBULANCE.COM.AU,,,2018-08-18T00:00:00Z,-35.499221,138.779757,,,GASA_415033151,13 GARDINER STREET,1,5214,GOOLWA,3,-35.49922596,138.7797896,,BFHLHN
624,EMERGENCY FACILITY,"An emergency management facility from which a particular agency’s resources are commanded, coordinated and assigned to an incident or emergency",AMBULANCE STATION,HAMLEY BRIDGE STATION,OPERATIONAL,8 LIGHT,HAMLEY BRIDGE,SOUTH AUSTRALIA,5401,HTTP://WWW.SAAMBULANCE.COM.AU,,HTTP://WWW.SAAMBULANCE.COM.AU,,,2018-08-18T00:00:00Z,-34.357153,138.682026,,,GASA_415172837,8 LIGHT STREET,1,5401,HAMLEY BRIDGE,20,-34.35732746,138.6819786,,YNLHN
619,EMERGENCY FACILITY,"An emergency management facility from which a particular agency’s resources are commanded, coordinated and assigned to an incident or emergency",AMBULANCE STATION,HAPPY VALLEY DIVISION,OPERATIONAL,LOT 500 FLAXMILL ROAD,MORPHETT VALE,SOUTH AUSTRALIA,5162,HTTP://WWW.STJOHNSA.COM.AU,,HTTP://WWW.STJOHNSA.COM.AU,,,2018-08-18T00:00:00Z,-35.12715156,138.5115158,,,GASA_424171445,LOT 500 FLAXMILL ROAD,-1,5162,MORPHETT VALE,21,-35.12729542,138.5113608,,SALHN
625,EMERGENCY FACILITY,"An emergency management facility from which a particular agency’s resources are commanded, coordinated and assigned to an incident or emergency",AMBULANCE STATION,HAWKER STATION,OPERATIONAL,WIRREANDA TERRACE,HAWKER,SOUTH AUSTRALIA,5434,HTTP://WWW.SAAMBULANCE.COM.AU,,HTTP://WWW.SAAMBULANCE.COM.AU,,,2018-08-18T00:00:00Z,-31.89352,138.427588,,,GASA_424341413,LOT 474 WIRREANDA TERRACE,0,5434,HAWKER,101,-31.89277984,138.4269692,,FUNLHN
626,EMERGENCY FACILITY,"An emergency management facility from which a particular agency’s resources are commanded, coordinated and assigned to an incident or emergency",AMBULANCE STATION,JAMESTOWN STATION,OPERATIONAL,LOT 14 MUIRKIRK STREET,JAMESTOWN,SOUTH AUSTRALIA,5491,HTTP://WWW.SAAMBULANCE.COM.AU,,HTTP://WWW.SAAMBULANCE.COM.AU,,,2018-08-18T00:00:00Z,-33.206654,138.604736,,,GASA_424194061,LOT 14 MUIRKIRK STREET,-1,5491,JAMESTOWN,22,-33.20647477,138.6048255,,YNLHN
627,EMERGENCY FACILITY,"An emergency management facility from which a particular agency’s resources are commanded, coordinated and assigned to an incident or emergency",AMBULANCE STATION,KADINA DIVISION,OPERATIONAL,6 TAYLOR STREET,KADINA,SOUTH AUSTRALIA,5554,HTTP://WWW.STJOHNSA.COM.AU,,HTTP://WWW.STJOHNSA.COM.AU,,,2018-08-18T00:00:00Z,-33.96347408,137.7106727,,,GASA_415517578,6 TAYLOR STREET,0,5554,KADINA,0,-33.9634742,137.7106729,,YNLHN
628,EMERGENCY FACILITY,"An emergency management facility from which a particular agency’s resources are commanded, coordinated and assigned to an incident or emergency",AMBULANCE STATION,KADINA STATION,OPERATIONAL,6 TAYLOR STREET,KADINA,SOUTH AUSTRALIA,5554,HTTP://WWW.SAAMBULANCE.COM.AU,,HTTP://WWW.SAAMBULANCE.COM.AU,,,2018-08-18T00:00:00Z,-33.963436,137.710712,,,GASA_415517578,6 TAYLOR STREET,0,5554,KADINA,6,-33.9634742,137.7106729,,YNLHN
629,EMERGENCY FACILITY,"An emergency management facility from which a particular agency’s resources are commanded, coordinated and assigned to an incident or emergency",AMBULANCE STATION,KAPUNDA STATION,OPERATIONAL,10 HILL STREET,KAPUNDA,SOUTH AUSTRALIA,5373,HTTP://WWW.SAAMBULANCE.COM.AU,,HTTP://WWW.SAAMBULANCE.COM.AU,,,2018-08-18T00:00:00Z,-34.340557,138.914496,,,GASA_415399437,10 HILL STREET,0,5373,KAPUNDA,8,-34.3405312,138.9145749,,BFHLHN
578,EMERGENCY FACILITY,"An emergency management facility from which a particular agency’s resources are commanded, coordinated and assigned to an incident or emergency",AMBULANCE STATION,KAROONDA DIVISION,OPERATIONAL,LOT 55 STOKES ROAD,KAROONDA,SOUTH AUSTRALIA,5307,HTTP://WWW.STJOHNSA.COM.AU,,HTTP://WWW.STJOHNSA.COM.AU,,,2018-08-18T00:00:00Z,-35.09499332,139.8896281,,,GASA_424416242,LOT 55 STOKES ROAD,-1,5307,KAROONDA,10,-35.0950398,139.8897249,,RMCLHN
579,EMERGENCY FACILITY,"An emergency management facility from which a particular agency’s resources are commanded, coordinated and assigned to an incident or emergency",AMBULANCE STATION,KAROONDA STATION,OPERATIONAL,LOT 55 STOKES ROAD,KAROONDA,SOUTH AUSTRALIA,5307,HTTP://WWW.SAAMBULANCE.COM.AU,,HTTP://WWW.SAAMBULANCE.COM.AU,,,2018-08-18T00:00:00Z,-35.09495,139.88981,,,GASA_424416242,LOT 55 STOKES ROAD,-1,5307,KAROONDA,13,-35.0950398,139.8897249,,RMCLHN
580,EMERGENCY FACILITY,"An emergency management facility from which a particular agency’s resources are commanded, coordinated and assigned to an incident or emergency",AMBULANCE STATION,KEITH STATION,OPERATIONAL,LOT 24 HILL AVENUE,KEITH,SOUTH AUSTRALIA,5267,HTTP://WWW.SAAMBULANCE.COM.AU,,HTTP://WWW.SAAMBULANCE.COM.AU,,,2018-08-18T00:00:00Z,-36.097515,140.346069,,,GASA_425064653,LOT 24 HILL AVENUE,-1,5267,KEITH,2,-36.09750309,140.346081,,LCLHN
581,EMERGENCY FACILITY,"An emergency management facility from which a particular agency’s resources are commanded, coordinated and assigned to an incident or emergency",AMBULANCE STATION,KIMBA STATION,OPERATIONAL,8A CROSS STREET,KIMBA,SOUTH AUSTRALIA,5641,HTTP://WWW.SAAMBULANCE.COM.AU,,HTTP://WWW.SAAMBULANCE.COM.AU,,,2018-08-18T00:00:00Z,-33.13862,136.419272,,,GASA_423681440,8 CROSS STREET,1,5641,KIMBA,13,-33.13863775,136.4194043,,EFNLHN
582,EMERGENCY FACILITY,"An emergency management facility from which a particular agency’s resources are commanded, coordinated and assigned to an incident or emergency",AMBULANCE STATION,KINGSCOTE STATION,OPERATIONAL,17 MURRAY STREET,KINGSCOTE,SOUTH AUSTRALIA,5223,HTTP://WWW.SAAMBULANCE.COM.AU,,HTTP://WWW.SAAMBULANCE.COM.AU,,,2018-08-18T00:00:00Z,-35.654679,137.636798,,,GASA_415557147,17 MURRAY STREET,1,5223,KINGSCOTE,6,-35.6546878,137.6367339,,BFHLHN
583,EMERGENCY FACILITY,"An emergency management facility from which a particular agency’s resources are commanded, coordinated and assigned to an incident or emergency",AMBULANCE STATION,KINGSTON STATION,OPERATIONAL,2 SMITHS LANE,KINGSTON SE,SOUTH AUSTRALIA,5275,HTTP://WWW.SAAMBULANCE.COM.AU,,HTTP://WWW.SAAMBULANCE.COM.AU,,,2018-08-18T00:00:00Z,-36.840368,139.853783,,,GASA_425353760,LOT 4 EAST TERRACE,0,5275,KINGSTON SE,25,-36.84017675,139.8536427,,LCLHN
584,EMERGENCY FACILITY,"An emergency management facility from which a particular agency’s resources are commanded, coordinated and assigned to an incident or emergency",AMBULANCE STATION,LAMEROO DIVISION,OPERATIONAL,LOT 1 CHANDOS TERRACE,LAMEROO,SOUTH AUSTRALIA,5302,HTTP://WWW.STJOHNSA.COM.AU,,HTTP://WWW.STJOHNSA.COM.AU,,,2018-08-18T00:00:00Z,-35.32895473,140.514893,,,GASA_424149530,LOT 1 CHANDOS TERRACE,1,5302,LAMEROO,1444,-35.33970373,140.5059462,,RMCLHN
585,EMERGENCY FACILITY,"An emergency management facility from which a particular agency’s resources are commanded, coordinated and assigned to an incident or emergency",AMBULANCE STATION,LAMEROO STATION,OPERATIONAL,LOT 1 CHANDOS TERRACE,LAMEROO,SOUTH AUSTRALIA,5302,HTTP://WWW.SAAMBULANCE.COM.AU,,HTTP://WWW.SAAMBULANCE.COM.AU,,,2018-08-18T00:00:00Z,-35.32878,140.515141,,,GASA_424149530,LOT 1 CHANDOS TERRACE,1,5302,LAMEROO,1472,-35.33970373,140.5059462,,RMCLHN
586,EMERGENCY FACILITY,"An emergency management facility from which a particular agency’s resources are commanded, coordinated and assigned to an incident or emergency",AMBULANCE STATION,LEIGH CREEK STATION,OPERATIONAL,PT LT 305 BLACK OAK DRIVE,LEIGH CREEK,SOUTH AUSTRALIA,5731,HTTP://WWW.SAAMBULANCE.COM.AU,,HTTP://WWW.SAAMBULANCE.COM.AU,,,2018-08-18T00:00:00Z,-30.591509,138.398321,,,GASA_424289860,LOT 305 BLACK OAK DRIVE,0,5731,LEIGH CREEK,21,-30.59160354,138.3985113,,FUNLHN
587,EMERGENCY FACILITY,"An emergency management facility from which a particular agency’s resources are commanded, coordinated and assigned to an incident or emergency",AMBULANCE STATION,LOCK STATION,OPERATIONAL,34 DEARMAN STREET,LOCK,SOUTH AUSTRALIA,5633,HTTP://WWW.SAAMBULANCE.COM.AU,,HTTP://WWW.SAAMBULANCE.COM.AU,,,2018-08-18T00:00:00Z,-33.565559,135.755649,,,GASA_416100813,34 DEARMAN STREET,1,5633,LOCK,16,-33.56549862,135.7558014,,EFNLHN
569,EMERGENCY FACILITY,"An emergency management facility from which a particular agency’s resources are commanded, coordinated and assigned to an incident or emergency",AMBULANCE STATION,LOGISTICS DIVISION,OPERATIONAL,11 ACORN ROAD,CAMDEN PARK,SOUTH AUSTRALIA,5038,HTTP://WWW.STJOHNSA.COM.AU,,HTTP://WWW.STJOHNSA.COM.AU,,,2018-08-18T00:00:00Z,-34.96189896,138.5431843,,,GASA_414915826,11 ACORN ROAD,1,5038,CAMDEN PARK,0,-34.961899,138.5431844,,CALHN
588,EMERGENCY FACILITY,"An emergency management facility from which a particular agency’s resources are commanded, coordinated and assigned to an incident or emergency",AMBULANCE STATION,LOXTON DIVISION,OPERATIONAL,KOKODA TERRACE,LOXTON,SOUTH AUSTRALIA,5333,HTTP://WWW.STJOHNSA.COM.AU,,HTTP://WWW.STJOHNSA.COM.AU,,,2018-08-18T00:00:00Z,-34.45334356,140.5733489,,,GASA_424111468,LOT 87 KOKODA TERRACE,0,5333,LOXTON,44,-34.45356924,140.5729613,,RMCLHN
589,EMERGENCY FACILITY,"An emergency management facility from which a particular agency’s resources are commanded, coordinated and assigned to an incident or emergency",AMBULANCE STATION,LOXTON STATION,OPERATIONAL,KOKODA TERRACE,LOXTON,SOUTH AUSTRALIA,5333,HTTP://WWW.SAAMBULANCE.COM.AU,,HTTP://WWW.SAAMBULANCE.COM.AU,,,2018-08-18T00:00:00Z,-34.45344,140.573523,,,GASA_424111468,LOT 87 KOKODA TERRACE,0,5333,LOXTON,54,-34.45356924,140.5729613,,RMCLHN
590,EMERGENCY FACILITY,"An emergency management facility from which a particular agency’s resources are commanded, coordinated and assigned to an incident or emergency",AMBULANCE STATION,LUCINDALE STATION,OPERATIONAL,MUSGRAVE AVENUE,LUCINDALE,SOUTH AUSTRALIA,5272,HTTP://WWW.SAAMBULANCE.COM.AU,,HTTP://WWW.SAAMBULANCE.COM.AU,,,2018-08-18T00:00:00Z,-36.972443,140.367126,,,GASA_424194533,LOT 221 MUSGRAVE AVENUE,0,5272,LUCINDALE,19,-36.97228662,140.3670441,,LCLHN
591,EMERGENCY FACILITY,"An emergency management facility from which a particular agency’s resources are commanded, coordinated and assigned to an incident or emergency",AMBULANCE STATION,MAITLAND STATION,OPERATIONAL,68 ROBERT STREET,MAITLAND,SOUTH AUSTRALIA,5573,HTTP://WWW.SAAMBULANCE.COM.AU,,HTTP://WWW.SAAMBULANCE.COM.AU,,,2018-08-18T00:00:00Z,-34.37089,137.673765,,HOSPITAL,GASA_417122975,68 ROBERT STREET,2,5573,MAITLAND,70,-34.37033353,137.6741232,,YNLHN
593,EMERGENCY FACILITY,"An emergency management facility from which a particular agency’s resources are commanded, coordinated and assigned to an incident or emergency",AMBULANCE STATION,MALLALA DIVISION,OPERATIONAL,LOT 747 ADELAIDE ROAD,MALLALA,SOUTH AUSTRALIA,5502,HTTP://WWW.STJOHNSA.COM.AU,,HTTP://WWW.STJOHNSA.COM.AU,,,2018-08-18T00:00:00Z,-34.43841844,138.509629,,,GASA_424151334,LOT 747 ADELAIDE ROAD,0,5502,MALLALA,1,-34.43841381,138.5096229,,BFHLHN
592,EMERGENCY FACILITY,"An emergency management facility from which a particular agency’s resources are commanded, coordinated and assigned to an incident or emergency",AMBULANCE STATION,MALLALA STATION,OPERATIONAL,LOT 747 ADELAIDE ROAD,MALLALA,SOUTH AUSTRALIA,5502,HTTP://WWW.SAAMBULANCE.COM.AU,,HTTP://WWW.SAAMBULANCE.COM.AU,,,2018-08-18T00:00:00Z,-34.438371,138.509542,,,GASA_424151334,LOT 747 ADELAIDE ROAD,0,5502,MALLALA,9,-34.43841381,138.5096229,,BFHLHN
594,EMERGENCY FACILITY,"An emergency management facility from which a particular agency’s resources are commanded, coordinated and assigned to an incident or emergency",AMBULANCE STATION,MANNUM STATION,OPERATIONAL,ADELAIDE ROAD,MANNUM,SOUTH AUSTRALIA,5238,HTTP://WWW.SAAMBULANCE.COM.AU,,HTTP://WWW.SAAMBULANCE.COM.AU,,,2018-08-18T00:00:00Z,-34.914507,139.301963,,,GASA_424922194,56 ADELAIDE ROAD,1,5238,MANNUM,29,-34.91473208,139.3017953,,RMCLHN
595,EMERGENCY FACILITY,"An emergency management facility from which a particular agency’s resources are commanded, coordinated and assigned to an incident or emergency",AMBULANCE STATION,MARION BAY STATION,OPERATIONAL,10-20 SLOW STREET,MARION BAY,SOUTH AUSTRALIA,5575,HTTP://WWW.SAAMBULANCE.COM.AU,,HTTP://WWW.SAAMBULANCE.COM.AU,,,2018-08-18T00:00:00Z,-35.237458,136.980302,,,GASA_415035700,10-20 SLOW STREET,2,5575,MARION BAY,26,-35.23763585,136.9804808,,YNLHN
568,EMERGENCY FACILITY,"An emergency management facility from which a particular agency’s resources are commanded, coordinated and assigned to an incident or emergency",AMBULANCE STATION,MARION DIVISION,OPERATIONAL,7 ARUNDEL ROAD,BRIGHTON,SOUTH AUSTRALIA,5048,HTTP://WWW.STJOHNSA.COM.AU,,HTTP://WWW.STJOHNSA.COM.AU,,,2018-08-18T00:00:00Z,-35.02015536,138.5244908,,,GASA_415247759,7 ARUNDEL ROAD,1,5048,BRIGHTON,0,-35.0201553,138.5244909,,SALHN
603,EMERGENCY FACILITY,"An emergency management facility from which a particular agency’s resources are commanded, coordinated and assigned to an incident or emergency",AMBULANCE STATION,MARION STATION,OPERATIONAL,346A STURT ROAD,MITCHELL PARK,SOUTH AUSTRALIA,5043,HTTP://WWW.SAAMBULANCE.COM.AU,,HTTP://WWW.SAAMBULANCE.COM.AU,,,2018-08-18T00:00:00Z,-35.016554,138.564744,,,GASA_415252613,346 STURT ROAD,0,5043,MITCHELL PARK,3,-35.01657156,138.5647634,,SALHN
596,EMERGENCY FACILITY,"An emergency management facility from which a particular agency’s resources are commanded, coordinated and assigned to an incident or emergency",AMBULANCE STATION,MARLA STATION,OPERATIONAL,LOT 9 PLOVER STREET,MARLA,SOUTH AUSTRALIA,5724,HTTP://WWW.SAAMBULANCE.COM.AU,,HTTP://WWW.SAAMBULANCE.COM.AU,,,2018-08-18T00:00:00Z,-27.302074,133.62283,,,GASA_424201306,LOT 9 PLOVER STREET,0,5724,MARLA,67,-27.30149501,133.6230306,,EFNLHN
597,EMERGENCY FACILITY,"An emergency management facility from which a particular agency’s resources are commanded, coordinated and assigned to an incident or emergency",AMBULANCE STATION,MCLAREN VALE STATION,OPERATIONAL,ALDERSEY STREET,MCLAREN VALE,SOUTH AUSTRALIA,5171,HTTP://WWW.SAAMBULANCE.COM.AU,,HTTP://WWW.SAAMBULANCE.COM.AU,,,2018-08-18T00:00:00Z,-35.220791,138.544539,,MCLAREN VALE HOSPITAL,GASA_424737914,5-9 ALDERSEY STREET,1,5171,MCLAREN VALE,43,-35.22108645,138.5448463,,SALHN
598,EMERGENCY FACILITY,"An emergency management facility from which a particular agency’s resources are commanded, coordinated and assigned to an incident or emergency",AMBULANCE STATION,MEADOWS STATION,OPERATIONAL,70-72 MAWSON ROAD,MEADOWS,SOUTH AUSTRALIA,5201,HTTP://WWW.SAAMBULANCE.COM.AU,,HTTP://WWW.SAAMBULANCE.COM.AU,,,2018-08-18T00:00:00Z,-35.181167,138.762816,,,GASA_425444354,70-72 MAWSON ROAD,-1,5201,MEADOWS,10,-35.18114411,138.7629188,,BFHLHN
599,EMERGENCY FACILITY,"An emergency management facility from which a particular agency’s resources are commanded, coordinated and assigned to an incident or emergency",AMBULANCE STATION,MENINGIE STATION,OPERATIONAL,102 PRINCES HIGHWAY,MENINGIE,SOUTH AUSTRALIA,5264,HTTP://WWW.SAAMBULANCE.COM.AU,,HTTP://WWW.SAAMBULANCE.COM.AU,,,2018-08-18T00:00:00Z,-35.692392,139.336783,,,GASA_415615233,102 PRINCES HIGHWAY,1,5264,MENINGIE,23,-35.6921933,139.336861,,RMCLHN
601,EMERGENCY FACILITY,"An emergency management facility from which a particular agency’s resources are commanded, coordinated and assigned to an incident or emergency",AMBULANCE STATION,MILLICENT DIVISION,OPERATIONAL,PT LT 1 MOUNT GAMBIER ROAD,MILLICENT,SOUTH AUSTRALIA,5280,HTTP://WWW.STJOHNSA.COM.AU,,HTTP://WWW.STJOHNSA.COM.AU,,,2018-08-18T00:00:00Z,-37.59846227,140.3582835,,HOSP LODGE,GASA_424319613,LOT 1 MOUNT GAMBIER ROAD,1,5280,MILLICENT,85,-37.59829526,140.3592208,,LCLHN
600,EMERGENCY FACILITY,"An emergency management facility from which a particular agency’s resources are commanded, coordinated and assigned to an incident or emergency",AMBULANCE STATION,MILLICENT STATION,OPERATIONAL,MOUNT GAMBIER ROAD,MILLICENT,SOUTH AUSTRALIA,5280,HTTP://WWW.SAAMBULANCE.COM.AU,,HTTP://WWW.SAAMBULANCE.COM.AU,,,2018-08-18T00:00:00Z,-37.598176,140.358,,HOSP LODGE,GASA_424319613,LOT 1 MOUNT GAMBIER ROAD,1,5280,MILLICENT,109,-37.59829526,140.3592208,,LCLHN
602,EMERGENCY FACILITY,"An emergency management facility from which a particular agency’s resources are commanded, coordinated and assigned to an incident or emergency",AMBULANCE STATION,MINLATON STATION,OPERATIONAL,LOT 198 MAIN STREET,MINLATON,SOUTH AUSTRALIA,5575,HTTP://WWW.SAAMBULANCE.COM.AU,,HTTP://WWW.SAAMBULANCE.COM.AU,,,2018-08-18T00:00:00Z,-34.773863,137.593793,,MINLATON DISTRICT HOSPITAL,GASA_417123934,69 MAIN STREET,1,5575,MINLATON,40,-34.77396016,137.5933711,,YNLHN
633,EMERGENCY FACILITY,"An emergency management facility from which a particular agency’s resources are commanded, coordinated and assigned to an incident or emergency",AMBULANCE STATION,MITCHAM COL LIGHT GARDENS ADULT DIVISION,OPERATIONAL,221 BELAIR ROAD,TORRENS PARK,SOUTH AUSTRALIA,5062,HTTP://WWW.STJOHNSA.COM.AU,,HTTP://WWW.STJOHNSA.COM.AU,,,2018-08-18T00:00:00Z,-34.98570849,138.6120003,,,GASA_415203785,221 BELAIR ROAD,1,5062,TORRENS PARK,3,-34.9857191,138.6119656,,SALHN
636,EMERGENCY FACILITY,"An emergency management facility from which a particular agency’s resources are commanded, coordinated and assigned to an incident or emergency",AMBULANCE STATION,MITCHAM COL LIGHT GARDENS CADET DIVISION,OPERATIONAL,14 ARTHUR STREET,UNLEY,SOUTH AUSTRALIA,5061,HTTP://WWW.STJOHNSA.COM.AU,,HTTP://WWW.STJOHNSA.COM.AU,,,2018-08-18T00:00:00Z,-34.95002692,138.6055077,,,GASA_415424196,14 ARTHUR STREET,1,5061,UNLEY,0,-34.950027,138.6055078,,SALHN
632,EMERGENCY FACILITY,"An emergency management facility from which a particular agency’s resources are commanded, coordinated and assigned to an incident or emergency",AMBULANCE STATION,MITCHAM STATION,OPERATIONAL,221 BELAIR ROAD,TORRENS PARK,SOUTH AUSTRALIA,5062,HTTP://WWW.SAAMBULANCE.COM.AU,,HTTP://WWW.SAAMBULANCE.COM.AU,,,2018-08-18T00:00:00Z,-34.985716,138.611953,,,GASA_415203785,221 BELAIR ROAD,1,5062,TORRENS PARK,1,-34.9857191,138.6119656,,SALHN
606,EMERGENCY FACILITY,"An emergency management facility from which a particular agency’s resources are commanded, coordinated and assigned to an incident or emergency",AMBULANCE STATION,MOONTA STATION,OPERATIONAL,7 RYAN STREET,MOONTA,SOUTH AUSTRALIA,5558,HTTP://WWW.SAAMBULANCE.COM.AU,,HTTP://WWW.SAAMBULANCE.COM.AU,,,2018-08-18T00:00:00Z,-34.068321,137.592688,,,GASA_415516258,7 RYAN STREET,2,5558,MOONTA,14,-34.06840991,137.5927979,,YNLHN
615,EMERGENCY FACILITY,"An emergency management facility from which a particular agency’s resources are commanded, coordinated and assigned to an incident or emergency",AMBULANCE STATION,MORGAN CADET DIVISION,OPERATIONAL,1 SIXTH STREET,MORGAN,SOUTH AUSTRALIA,5320,HTTP://WWW.STJOHNSA.COM.AU,,HTTP://WWW.STJOHNSA.COM.AU,,,2018-08-18T00:00:00Z,-34.02963625,139.6687823,,,GASA_415678288,1 SIXTH STREET,1,5320,MORGAN,0,-34.0296363,139.6687825,,RMCLHN
691,EMERGENCY FACILITY,"An emergency management facility from which a particular agency’s resources are commanded, coordinated and assigned to an incident or emergency",AMBULANCE STATION,MORGAN STATION,OPERATIONAL,FIRST STREET,MORGAN,SOUTH AUSTRALIA,5320,HTTP://WWW.SAAMBULANCE.COM.AU,,HTTP://WWW.SAAMBULANCE.COM.AU,,,2018-08-18T00:00:00Z,-34.033007,139.670396,,,,,,,,,,,NO GNAF POINT,RMCLHN
620,EMERGENCY FACILITY,"An emergency management facility from which a particular agency’s resources are commanded, coordinated and assigned to an incident or emergency",AMBULANCE STATION,MT BARKER STATION,OPERATIONAL,21 MANN STREET,MOUNT BARKER,SOUTH AUSTRALIA,5251,HTTP://WWW.SAAMBULANCE.COM.AU,,HTTP://WWW.SAAMBULANCE.COM.AU,,,2018-08-18T00:00:00Z,-35.068605,138.860161,,,GASA_422065687,21 MANN STREET,1,5251,MOUNT BARKER,3,-35.06859318,138.8601301,,BFHLHN
665,EMERGENCY FACILITY,"An emergency management facility from which a particular agency’s resources are commanded, coordinated and assigned to an incident or emergency",AMBULANCE STATION,MT GAMBIER STATION,OPERATIONAL,46 PENOLA ROAD,MOUNT GAMBIER,SOUTH AUSTRALIA,5290,HTTP://WWW.SAAMBULANCE.COM.AU,,HTTP://WWW.SAAMBULANCE.COM.AU,,,2018-08-18T00:00:00Z,-37.824908,140.78281,,,GASA_415542445,46 PENOLA ROAD,1,5290,MOUNT GAMBIER,30,-37.82503884,140.7831035,,LCLHN
666,EMERGENCY FACILITY,"An emergency management facility from which a particular agency’s resources are commanded, coordinated and assigned to an incident or emergency",AMBULANCE STATION,MT PLEASANT STATION,OPERATIONAL,HOSPITAL ROAD,MOUNT PLEASANT,SOUTH AUSTRALIA,5235,HTTP://WWW.SAAMBULANCE.COM.AU,,HTTP://WWW.SAAMBULANCE.COM.AU,,,2018-08-18T00:00:00Z,-34.77308,139.054123,,,GASA_416991705,36 HOSPITAL ROAD,0,5235,MOUNT PLEASANT,26,-34.77328354,139.0539736,,BFHLHN
634,EMERGENCY FACILITY,"An emergency management facility from which a particular agency’s resources are commanded, coordinated and assigned to an incident or emergency",AMBULANCE STATION,MT BARKER DIVISION,OPERATIONAL,3 KOOKABURRA LANE,TOTNESS,SOUTH AUSTRALIA,5250,HTTP://WWW.STJOHNSA.COM.AU,,HTTP://WWW.STJOHNSA.COM.AU,,,2018-08-18T00:00:00Z,-35.05380169,138.8525448,,,GASA_422064238,3 KOOKABURRA LANE,2,5250,TOTNESS,14,-35.05389433,138.8524402,,LCLHN
621,EMERGENCY FACILITY,"An emergency management facility from which a particular agency’s resources are commanded, coordinated and assigned to an incident or emergency",AMBULANCE STATION,MT GAMBIER DIVISION,OPERATIONAL,46 PENOLA ROAD,MOUNT GAMBIER,SOUTH AUSTRALIA,5290,HTTP://WWW.STJOHNSA.COM.AU,,HTTP://WWW.STJOHNSA.COM.AU,,,2018-08-18T00:00:00Z,-37.82496084,140.7830303,,,GASA_415542445,46 PENOLA ROAD,1,5290,MOUNT GAMBIER,11,-37.82503884,140.7831035,,LCLHN
667,EMERGENCY FACILITY,"An emergency management facility from which a particular agency’s resources are commanded, coordinated and assigned to an incident or emergency",AMBULANCE STATION,MURRAY BRIDGE DIVISION,OPERATIONAL,94 SWANPORT ROAD,MURRAY BRIDGE,SOUTH AUSTRALIA,5253,HTTP://WWW.STJOHNSA.COM.AU,,HTTP://WWW.STJOHNSA.COM.AU,,,2018-08-18T00:00:00Z,-35.1282775,139.2795442,,,GASA_415017142,94 SWANPORT ROAD,2,5253,MURRAY BRIDGE,3,-35.12824815,139.2795505,,RMCLHN
692,EMERGENCY FACILITY,"An emergency management facility from which a particular agency’s resources are commanded, coordinated and assigned to an incident or emergency",AMBULANCE STATION,MURRAY BRIDGE STATION,OPERATIONAL,DARLING AVENUE,MURRAY BRIDGE,SOUTH AUSTRALIA,5253,HTTP://WWW.SAAMBULANCE.COM.AU,,HTTP://WWW.SAAMBULANCE.COM.AU,,,2018-08-18T00:00:00Z,-35.144113,139.285578,,,,,,,,,,,NO GNAF POINT,RMCLHN
668,EMERGENCY FACILITY,"An emergency management facility from which a particular agency’s resources are commanded, coordinated and assigned to an incident or emergency",AMBULANCE STATION,NANGWARRY STATION,OPERATIONAL,LOT 304 BEDNALL DRIVE,NANGWARRY,SOUTH AUSTRALIA,5277,HTTP://WWW.SAAMBULANCE.COM.AU,,HTTP://WWW.SAAMBULANCE.COM.AU,,,2018-08-18T00:00:00Z,-37.542637,140.814192,,,GASA_424817434,LOT 304 BEDNALL DRIVE,0,5277,NANGWARRY,21,-37.54261667,140.8139515,,LCLHN
670,EMERGENCY FACILITY,"An emergency management facility from which a particular agency’s resources are commanded, coordinated and assigned to an incident or emergency",AMBULANCE STATION,NARACOORTE DIVISION,OPERATIONAL,BUTLER TERRACE,NARACOORTE,SOUTH AUSTRALIA,5271,HTTP://WWW.STJOHNSA.COM.AU,,HTTP://WWW.STJOHNSA.COM.AU,,,2018-08-18T00:00:00Z,-36.96452444,140.7444854,,,GASA_424292721,LOT 1134 BUTLER TERRACE,0,5271,NARACOORTE,3,-36.96450613,140.7445008,,LCLHN
669,EMERGENCY FACILITY,"An emergency management facility from which a particular agency’s resources are commanded, coordinated and assigned to an incident or emergency",AMBULANCE STATION,NARACOORTE STATION,OPERATIONAL,BUTLER TERRACE,NARACOORTE,SOUTH AUSTRALIA,5271,HTTP://WWW.SAAMBULANCE.COM.AU,,HTTP://WWW.SAAMBULANCE.COM.AU,,,2018-08-18T00:00:00Z,-36.964632,140.744472,,,GASA_424292721,LOT 1134 BUTLER TERRACE,0,5271,NARACOORTE,14,-36.96450613,140.7445008,,LCLHN
616,EMERGENCY FACILITY,"An emergency management facility from which a particular agency’s resources are commanded, coordinated and assigned to an incident or emergency",AMBULANCE STATION,NOARLUNGA DIVISION,OPERATIONAL,LOT 500 FLAXMILL ROAD,MORPHETT VALE,SOUTH AUSTRALIA,5162,HTTP://WWW.STJOHNSA.COM.AU,,HTTP://WWW.STJOHNSA.COM.AU,,,2018-08-18T00:00:00Z,-35.12716464,138.5111164,,,GASA_424171445,LOT 500 FLAXMILL ROAD,-1,5162,MORPHETT VALE,27,-35.12729542,138.5113608,,SALHN
618,EMERGENCY FACILITY,"An emergency management facility from which a particular agency’s resources are commanded, coordinated and assigned to an incident or emergency",AMBULANCE STATION,NOARLUNGA STATION,OPERATIONAL,LOT 500 FLAXMILL ROAD,MORPHETT VALE,SOUTH AUSTRALIA,5162,HTTP://WWW.SAAMBULANCE.COM.AU,,HTTP://WWW.SAAMBULANCE.COM.AU,,,2018-08-18T00:00:00Z,-35.127233,138.511348,,,GASA_424171445,LOT 500 FLAXMILL ROAD,-1,5162,MORPHETT VALE,7,-35.12729542,138.5113608,,SALHN
638,EMERGENCY FACILITY,"An emergency management facility from which a particular agency’s resources are commanded, coordinated and assigned to an incident or emergency",AMBULANCE STATION,O'HALLORAN HILL STATION,OPERATIONAL,4 MAJORS ROAD,O'HALLORAN HILL,SOUTH AUSTRALIA,5158,HTTP://WWW.SAAMBULANCE.COM.AU,,HTTP://WWW.SAAMBULANCE.COM.AU,,,2018-08-18T00:00:00Z,-35.054917,138.544933,,FIRE STATION,GASA_415530151,4 MAJORS ROAD,1,5158,TROTT PARK,35,-35.05499049,138.544561,,SALHN
639,EMERGENCY FACILITY,"An emergency management facility from which a particular agency’s resources are commanded, coordinated and assigned to an incident or emergency",AMBULANCE STATION,ORROROO STATION,OPERATIONAL,12172 R M WILLIAMS WAY,ORROROO,SOUTH AUSTRALIA,5431,HTTP://WWW.SAAMBULANCE.COM.AU,,HTTP://WWW.SAAMBULANCE.COM.AU,,,2018-08-18T00:00:00Z,-32.735797,138.617285,,,GASA_425140194,12172 R M WILLIAMS WAY,1,5431,ORROROO,30,-32.73602795,138.6174478,,YNLHN
640,EMERGENCY FACILITY,"An emergency management facility from which a particular agency’s resources are commanded, coordinated and assigned to an incident or emergency",AMBULANCE STATION,PADTHAWAY STATION,OPERATIONAL,2 MEMORIAL DRIVE,PADTHAWAY,SOUTH AUSTRALIA,5271,HTTP://WWW.SAAMBULANCE.COM.AU,,HTTP://WWW.SAAMBULANCE.COM.AU,,,2018-08-18T00:00:00Z,-36.603115,140.493124,,,GASA_422266977,2 MEMORIAL DRIVE,2,5271,PADTHAWAY,2,-36.60311199,140.4931483,,LCLHN
641,EMERGENCY FACILITY,"An emergency management facility from which a particular agency’s resources are commanded, coordinated and assigned to an incident or emergency",AMBULANCE STATION,PARKSIDE STATION,OPERATIONAL,6 GLEN OSMOND ROAD,PARKSIDE,SOUTH AUSTRALIA,5063,HTTP://WWW.SAAMBULANCE.COM.AU,,HTTP://WWW.SAAMBULANCE.COM.AU,,,2018-08-18T00:00:00Z,-34.941046,138.616041,,,GASA_416679161,6-8 GLEN OSMOND ROAD,1,5063,PARKSIDE,13,-34.94114382,138.6159698,,CALHN
643,EMERGENCY FACILITY,"An emergency management facility from which a particular agency’s resources are commanded, coordinated and assigned to an incident or emergency",AMBULANCE STATION,PENNESHAW STATION,OPERATIONAL,LOT 98 THE LANE,PENNESHAW,SOUTH AUSTRALIA,5222,HTTP://WWW.SAAMBULANCE.COM.AU,,HTTP://WWW.SAAMBULANCE.COM.AU,,,2018-08-18T00:00:00Z,-35.718622,137.937375,,,GASA_424215021,LOT 98  ,-1,5222,PENNESHAW,16,-35.7184792,137.9373945,,BFHLHN
645,EMERGENCY FACILITY,"An emergency management facility from which a particular agency’s resources are commanded, coordinated and assigned to an incident or emergency",AMBULANCE STATION,PENOLA DIVISION,OPERATIONAL,16E CHURCH STREET,PENOLA,SOUTH AUSTRALIA,5277,HTTP://WWW.STJOHNSA.COM.AU,,HTTP://WWW.STJOHNSA.COM.AU,,,2018-08-18T00:00:00Z,-37.38361212,140.8364761,,,GASA_423774349,16 CHURCH STREET,1,5277,PENOLA,23,-37.38352825,140.8362451,,LCLHN
644,EMERGENCY FACILITY,"An emergency management facility from which a particular agency’s resources are commanded, coordinated and assigned to an incident or emergency",AMBULANCE STATION,PENOLA STATION,OPERATIONAL,16E CHURCH STREET,PENOLA,SOUTH AUSTRALIA,5277,HTTP://WWW.SAAMBULANCE.COM.AU,,HTTP://WWW.SAAMBULANCE.COM.AU,,,2018-08-18T00:00:00Z,-37.383552,140.836358,,,GASA_423774349,16 CHURCH STREET,1,5277,PENOLA,10,-37.38352825,140.8362451,,LCLHN
646,EMERGENCY FACILITY,"An emergency management facility from which a particular agency’s resources are commanded, coordinated and assigned to an incident or emergency",AMBULANCE STATION,PETERBOROUGH STATION,OPERATIONAL,19-21 QUEEN STREET,PETERBOROUGH,SOUTH AUSTRALIA,5422,HTTP://WWW.SAAMBULANCE.COM.AU,,HTTP://WWW.SAAMBULANCE.COM.AU,,,2018-08-18T00:00:00Z,-32.977025,138.842687,,,GASA_425449071,19-21 QUEEN STREET,0,5422,PETERBOROUGH,21,-32.97709304,138.8428921,,YNLHN
647,EMERGENCY FACILITY,"An emergency management facility from which a particular agency’s resources are commanded, coordinated and assigned to an incident or emergency",AMBULANCE STATION,PINNAROO STATION,OPERATIONAL,LOT 104 HOMBURG TERRACE,PINNAROO,SOUTH AUSTRALIA,5304,HTTP://WWW.SAAMBULANCE.COM.AU,,HTTP://WWW.SAAMBULANCE.COM.AU,,,2018-08-18T00:00:00Z,-35.259699,140.909877,,,GASA_424179888,LOT 104 HOMBURG TERRACE,1,5304,PINNAROO,10,-35.25966093,140.9099739,,RMCLHN
607,EMERGENCY FACILITY,"An emergency management facility from which a particular agency’s resources are commanded, coordinated and assigned to an incident or emergency",AMBULANCE STATION,PLAYFORD DIVISION,OPERATIONAL,LOT 15 ELIZABETH WAY,ELIZABETH,SOUTH AUSTRALIA,5112,HTTP://WWW.STJOHNSA.COM.AU,,HTTP://WWW.STJOHNSA.COM.AU,,,2018-08-18T00:00:00Z,-34.71464282,138.6712366,,,GASA_416853352,81 ELIZABETH WAY,1,5112,ELIZABETH,8,-34.71458664,138.6711772,,NALHN
608,EMERGENCY FACILITY,"An emergency management facility from which a particular agency’s resources are commanded, coordinated and assigned to an incident or emergency",AMBULANCE STATION,PLAYFORD STATION,OPERATIONAL,LOT 1 TOLMER ROAD,ELIZABETH PARK,SOUTH AUSTRALIA,5113,HTTP://WWW.SAAMBULANCE.COM.AU,,HTTP://WWW.SAAMBULANCE.COM.AU,,,2018-08-18T00:00:00Z,-34.707814,138.679288,,,GASA_424123855,LOT 1 TOLMER ROAD,1,5113,ELIZABETH PARK,3,-34.70783505,138.6792638,,NALHN
648,EMERGENCY FACILITY,"An emergency management facility from which a particular agency’s resources are commanded, coordinated and assigned to an incident or emergency",AMBULANCE STATION,PT ADELAIDE STATION,OPERATIONAL,3-5 SANTO PDE,PORT ADELAIDE,SOUTH AUSTRALIA,5015,HTTP://WWW.SAAMBULANCE.COM.AU,,HTTP://WWW.SAAMBULANCE.COM.AU,,,2018-08-18T00:00:00Z,-34.843087,138.511522,,,GASA_415373732,3-5 SANTO PARADE,1,5015,PORT ADELAIDE,15,-34.84295619,138.5115399,,CALHN
650,EMERGENCY FACILITY,"An emergency management facility from which a particular agency’s resources are commanded, coordinated and assigned to an incident or emergency",AMBULANCE STATION,PT AUGUSTA STATION,OPERATIONAL,6 GILES STREET,PORT AUGUSTA,SOUTH AUSTRALIA,5700,HTTP://WWW.SAAMBULANCE.COM.AU,,HTTP://WWW.SAAMBULANCE.COM.AU,,,2018-08-18T00:00:00Z,-32.509256,137.777103,,,GASA_424426161,6 GILES STREET,0,5700,PORT AUGUSTA,5,-32.50921734,137.7771286,,FUNLHN
651,EMERGENCY FACILITY,"An emergency management facility from which a particular agency’s resources are commanded, coordinated and assigned to an incident or emergency",AMBULANCE STATION,PT BROUGHTON STATION,OPERATIONAL,BAY STREET,PORT BROUGHTON,SOUTH AUSTRALIA,5522,HTTP://WWW.SAAMBULANCE.COM.AU,,HTTP://WWW.SAAMBULANCE.COM.AU,,,2018-08-18T00:00:00Z,-33.601147,137.934669,,,GASA_720417316,22-24 BAY STREET,0,5522,PORT BROUGHTON,9,-33.60117103,137.9345762,,YNLHN
654,EMERGENCY FACILITY,"An emergency management facility from which a particular agency’s resources are commanded, coordinated and assigned to an incident or emergency",AMBULANCE STATION,PT LINCOLN STATION,OPERATIONAL,4 MARINE AVENUE,PORT LINCOLN,SOUTH AUSTRALIA,5606,HTTP://WWW.SAAMBULANCE.COM.AU,,HTTP://WWW.SAAMBULANCE.COM.AU,,,2018-08-18T00:00:00Z,-34.724847,135.850629,,,GASA_422065936,4 MARINE AVENUE,0,5606,PORT LINCOLN,2,-34.72482548,135.850625,,EFNLHN
655,EMERGENCY FACILITY,"An emergency management facility from which a particular agency’s resources are commanded, coordinated and assigned to an incident or emergency",AMBULANCE STATION,PT NEILL STATION,OPERATIONAL,BICE STREET,PORT NEILL,SOUTH AUSTRALIA,5604,HTTP://WWW.SAAMBULANCE.COM.AU,,HTTP://WWW.SAAMBULANCE.COM.AU,,,2018-08-18T00:00:00Z,-34.119503,136.349021,,,GASA_415723620,41 WALLIS STREET,0,5604,PORT NEILL,21,-34.11937528,136.348861,,EFNLHN
656,EMERGENCY FACILITY,"An emergency management facility from which a particular agency’s resources are commanded, coordinated and assigned to an incident or emergency",AMBULANCE STATION,PT PIRIE DIVISION,OPERATIONAL,49-57 GERTRUDE STREET,PORT PIRIE,SOUTH AUSTRALIA,5540,HTTP://WWW.STJOHNSA.COM.AU,,HTTP://WWW.STJOHNSA.COM.AU,,,2018-08-18T00:00:00Z,-33.17635466,138.0070819,,,GASA_425438281,49-57 GERTRUDE STREET,0,5540,PORT PIRIE,19,-33.17644117,138.0072514,,YNLHN
657,EMERGENCY FACILITY,"An emergency management facility from which a particular agency’s resources are commanded, coordinated and assigned to an incident or emergency",AMBULANCE STATION,PT PIRIE STATION,OPERATIONAL,97 GREY TERRACE,PORT PIRIE SOUTH,SOUTH AUSTRALIA,5540,HTTP://WWW.SAAMBULANCE.COM.AU,,HTTP://WWW.SAAMBULANCE.COM.AU,,,2018-08-18T00:00:00Z,-33.189938,138.00589,,,GASA_719861375,97 GREY TERRACE,0,5540,PORT PIRIE SOUTH,83,-33.19062469,138.0055383,,YNLHN
658,EMERGENCY FACILITY,"An emergency management facility from which a particular agency’s resources are commanded, coordinated and assigned to an incident or emergency",AMBULANCE STATION,PT WAKEFIELD STATION,OPERATIONAL,2 BURRA STREET,PORT WAKEFIELD,SOUTH AUSTRALIA,5550,HTTP://WWW.SAAMBULANCE.COM.AU,,HTTP://WWW.SAAMBULANCE.COM.AU,,,2018-08-18T00:00:00Z,-34.186318,138.153171,,,GASA_416270164,2 BURRA STREET,0,5550,PORT WAKEFIELD,12,-34.18624888,138.1530785,,YNLHN
660,EMERGENCY FACILITY,"An emergency management facility from which a particular agency’s resources are commanded, coordinated and assigned to an incident or emergency",AMBULANCE STATION,PROSPECT CADET DIVISION,OPERATIONAL,387 REGENCY ROAD,PROSPECT,SOUTH AUSTRALIA,5082,HTTP://WWW.STJOHNSA.COM.AU,,HTTP://WWW.STJOHNSA.COM.AU,,,2018-08-18T00:00:00Z,-34.87451583,138.5905711,,,GASA_415419889,387 REGENCY ROAD,1,5082,PROSPECT,0,-34.8745158,138.5905713,,CALHN
659,EMERGENCY FACILITY,"An emergency management facility from which a particular agency’s resources are commanded, coordinated and assigned to an incident or emergency",AMBULANCE STATION,PROSPECT STATION,OPERATIONAL,478-480 REGENCY ROAD,PROSPECT,SOUTH AUSTRALIA,5082,HTTP://WWW.SAAMBULANCE.COM.AU,,HTTP://WWW.SAAMBULANCE.COM.AU,,,2018-08-18T00:00:00Z,-34.873514,138.600424,,,GASA_425449480,478-480 REGENCY ROAD,0,5082,PROSPECT,17,-34.87340228,138.6002903,,CALHN
679,EMERGENCY FACILITY,"An emergency management facility from which a particular agency’s resources are commanded, coordinated and assigned to an incident or emergency",AMBULANCE STATION,PT ADELAIDE DIVISION,OPERATIONAL,2-18 FRESHWATER ROAD,SEMAPHORE,SOUTH AUSTRALIA,5019,HTTP://WWW.STJOHNSA.COM.AU,,HTTP://WWW.STJOHNSA.COM.AU,,,2018-08-18T00:00:00Z,-34.84316384,138.4873658,,,GASA_425460006,2-18 FRESHWATER ROAD,0,5019,SEMAPHORE,33,-34.84287538,138.4873048,,CALHN
649,EMERGENCY FACILITY,"An emergency management facility from which a particular agency’s resources are commanded, coordinated and assigned to an incident or emergency",AMBULANCE STATION,PT AUGUSTA DIVISION,OPERATIONAL,18-26 ANSTEY STREET,PORT AUGUSTA,SOUTH AUSTRALIA,5700,HTTP://WWW.STJOHNSA.COM.AU,,HTTP://WWW.STJOHNSA.COM.AU,,,2018-08-18T00:00:00Z,-32.50990816,137.7770414,,,GASA_425459683,18-26 ANSTEY STREET,-1,5700,PORT AUGUSTA,105,-32.50988376,137.7759299,,FUNLHN
652,EMERGENCY FACILITY,"An emergency management facility from which a particular agency’s resources are commanded, coordinated and assigned to an incident or emergency",AMBULANCE STATION,PT BROUGHTON DIVISION,OPERATIONAL,BAY STREET,PORT BROUGHTON,SOUTH AUSTRALIA,5522,HTTP://WWW.STJOHNSA.COM.AU,,HTTP://WWW.STJOHNSA.COM.AU,,,2018-08-18T00:00:00Z,-33.60105145,137.9344942,,,GASA_720417316,22-24 BAY STREET,0,5522,PORT BROUGHTON,15,-33.60117103,137.9345762,,YNLHN
653,EMERGENCY FACILITY,"An emergency management facility from which a particular agency’s resources are commanded, coordinated and assigned to an incident or emergency",AMBULANCE STATION,PT LINCOLN DIVISION,OPERATIONAL,4 MARINE AVENUE,PORT LINCOLN,SOUTH AUSTRALIA,5606,HTTP://WWW.STJOHNSA.COM.AU,,HTTP://WWW.STJOHNSA.COM.AU,,,2018-08-18T00:00:00Z,-34.72482569,135.8506316,,,GASA_422065936,4 MARINE AVENUE,0,5606,PORT LINCOLN,1,-34.72482548,135.850625,,EFNLHN
662,EMERGENCY FACILITY,"An emergency management facility from which a particular agency’s resources are commanded, coordinated and assigned to an incident or emergency",AMBULANCE STATION,QUORN STATION,OPERATIONAL,LOT 501 WEST TERRACE,QUORN,SOUTH AUSTRALIA,5433,HTTP://WWW.SAAMBULANCE.COM.AU,,HTTP://WWW.SAAMBULANCE.COM.AU,,,2018-08-18T00:00:00Z,-32.35152,138.037854,,,GASA_424219758,LOT 501 WEST TERRACE,0,5433,QUORN,136,-32.35246108,138.0387753,,FUNLHN
663,EMERGENCY FACILITY,"An emergency management facility from which a particular agency’s resources are commanded, coordinated and assigned to an incident or emergency",AMBULANCE STATION,REDWOOD PARK STATION,OPERATIONAL,LOT 540 GAYLARD CRES,REDWOOD PARK,SOUTH AUSTRALIA,5097,HTTP://WWW.SAAMBULANCE.COM.AU,,HTTP://WWW.SAAMBULANCE.COM.AU,,,2018-08-18T00:00:00Z,-34.816991,138.695253,,,GASA_424302958,LOT 533 GAYLARD CRESCENT,-1,5097,REDWOOD PARK,33,-34.81683388,138.6955551,,NALHN
672,EMERGENCY FACILITY,"An emergency management facility from which a particular agency’s resources are commanded, coordinated and assigned to an incident or emergency",AMBULANCE STATION,RENMARK DIVISION,OPERATIONAL,LOT 106 EIGHTEENTH STREET,RENMARK,SOUTH AUSTRALIA,5341,HTTP://WWW.STJOHNSA.COM.AU,,HTTP://WWW.STJOHNSA.COM.AU,,,2018-08-18T00:00:00Z,-34.17426527,140.7448641,,,GASA_424168686,LOT 106 EIGHTEENTH STREET,-1,5341,RENMARK,1,-34.17427233,140.7448579,,RMCLHN
664,EMERGENCY FACILITY,"An emergency management facility from which a particular agency’s resources are commanded, coordinated and assigned to an incident or emergency",AMBULANCE STATION,RENMARK STATION,OPERATIONAL,LOT 567 EIGHTEENTH STREET,RENMARK,SOUTH AUSTRALIA,5341,HTTP://WWW.SAAMBULANCE.COM.AU,,HTTP://WWW.SAAMBULANCE.COM.AU,,,2018-08-18T00:00:00Z,-34.17435,140.744987,,,GASA_424168691,LOT 567 EIGHTEENTH STREET,-1,5341,RENMARK,8,-34.1744148,140.7450168,,RMCLHN
673,EMERGENCY FACILITY,"An emergency management facility from which a particular agency’s resources are commanded, coordinated and assigned to an incident or emergency",AMBULANCE STATION,RIVERTON STATION,OPERATIONAL,16 TORRENS ROAD,RIVERTON,SOUTH AUSTRALIA,5412,HTTP://WWW.SAAMBULANCE.COM.AU,,HTTP://WWW.SAAMBULANCE.COM.AU,,,2018-08-18T00:00:00Z,-34.156895,138.74825,,,GASA_415485155,16 TORRENS ROAD,1,5412,RIVERTON,2,-34.1569093,138.7482414,,RMCLHN
675,EMERGENCY FACILITY,"An emergency management facility from which a particular agency’s resources are commanded, coordinated and assigned to an incident or emergency",AMBULANCE STATION,ROBE STATION,OPERATIONAL,LOT 1 O'HALLORAN STREET,ROBE,SOUTH AUSTRALIA,5276,HTTP://WWW.SAAMBULANCE.COM.AU,,HTTP://WWW.SAAMBULANCE.COM.AU,,,2018-08-18T00:00:00Z,-37.165409,139.75149,,,GASA_424196784,LOT 1 O'HALLORAN STREET,0,5276,ROBE,9,-37.16547213,139.7514349,,LCLHN
676,EMERGENCY FACILITY,"An emergency management facility from which a particular agency’s resources are commanded, coordinated and assigned to an incident or emergency",AMBULANCE STATION,ROXBY DOWNS STATION,OPERATIONAL,16-28 BURGOYNE STREET,ROXBY DOWNS,SOUTH AUSTRALIA,5725,HTTP://WWW.SAAMBULANCE.COM.AU,,HTTP://WWW.SAAMBULANCE.COM.AU,,,2018-08-18T00:00:00Z,-30.562751,136.893912,,HOSPITAL,GASA_417106116,16-28 BURGOYNE STREET,2,5725,ROXBY DOWNS,36,-30.56302614,136.8941137,,FUNLHN
677,EMERGENCY FACILITY,"An emergency management facility from which a particular agency’s resources are commanded, coordinated and assigned to an incident or emergency",AMBULANCE STATION,SALISBURY DOWNS DIVISION,OPERATIONAL,7-15 DE MILLE STREET,SALISBURY DOWNS,SOUTH AUSTRALIA,5108,HTTP://WWW.STJOHNSA.COM.AU,,HTTP://WWW.STJOHNSA.COM.AU,,,2018-08-18T00:00:00Z,-34.76684722,138.6146818,,,GASA_425435473,7-15 DE MILLE STREET,0,5108,SALISBURY DOWNS,77,-34.76643535,138.6140073,,NALHN
678,EMERGENCY FACILITY,"An emergency management facility from which a particular agency’s resources are commanded, coordinated and assigned to an incident or emergency",AMBULANCE STATION,SALISBURY STATION,OPERATIONAL,1-3 BREMEN DRIVE,SALISBURY SOUTH,SOUTH AUSTRALIA,5106,HTTP://WWW.SAAMBULANCE.COM.AU,,HTTP://WWW.SAAMBULANCE.COM.AU,,,2018-08-18T00:00:00Z,-34.783769,138.637486,,,GASA_425432702,1-3 BREMEN DRIVE,0,5106,SALISBURY SOUTH,14,-34.78363987,138.6374723,,NALHN
680,EMERGENCY FACILITY,"An emergency management facility from which a particular agency’s resources are commanded, coordinated and assigned to an incident or emergency",AMBULANCE STATION,SNOWTOWN STATION,OPERATIONAL,3-5 ADELAIDE ROAD,SNOWTOWN,SOUTH AUSTRALIA,5520,HTTP://WWW.SAAMBULANCE.COM.AU,,HTTP://WWW.SAAMBULANCE.COM.AU,,,2018-08-18T00:00:00Z,-33.788036,138.210929,,,GASA_425430645,3-5 ADELAIDE ROAD,0,5520,SNOWTOWN,32,-33.78822979,138.211179,,YNLHN
617,EMERGENCY FACILITY,"An emergency management facility from which a particular agency’s resources are commanded, coordinated and assigned to an incident or emergency",AMBULANCE STATION,SOUTHERN JUNIORS DIVISION,OPERATIONAL,LOT 500 FLAXMILL ROAD,MORPHETT VALE,SOUTH AUSTRALIA,5162,HTTP://WWW.STJOHNSA.COM.AU,,HTTP://WWW.STJOHNSA.COM.AU,,,2018-08-18T00:00:00Z,-35.12729714,138.5112969,,,GASA_424171445,LOT 500 FLAXMILL ROAD,-1,5162,MORPHETT VALE,6,-35.12729542,138.5113608,,SALHN
541,EMERGENCY FACILITY,"An emergency management facility from which a particular agency’s resources are commanded, coordinated and assigned to an incident or emergency",AMBULANCE STATION,SPECIAL OPERATIONS STATION,OPERATIONAL,LOT 42 SIR DONALD BRADMAN DRIVE,ADELAIDE AIRPORT,SOUTH AUSTRALIA,5950,HTTP://WWW.SAAMBULANCE.COM.AU,,HTTP://WWW.SAAMBULANCE.COM.AU,,,2018-08-18T00:00:00Z,-34.936336,138.532365,,,GASA_423200457,LOT 42 SIR DONALD BRADMAN DRIVE,0,5950,ADELAIDE AIRPORT,1724,-34.94659905,138.5465287,,CALHN
526,EMERGENCY FACILITY,"An emergency management facility from which a particular agency’s resources are commanded, coordinated and assigned to an incident or emergency",AMBULANCE STATION,STATE HEADQUARTERS,OPERATIONAL,216 GREENHILL ROAD,EASTWOOD,SOUTH AUSTRALIA,5063,HTTP://WWW.SAAMBULANCE.COM.AU,,HTTP://WWW.SAAMBULANCE.COM.AU,,,2018-08-18T00:00:00Z,-34.940631,138.621913,,,GASA_415467451,216 GREENHILL ROAD,1,5063,EASTWOOD,11,-34.940725,138.6218865,,CALHN
718,EMERGENCY FACILITY,"An emergency management facility from which a particular agency’s resources are commanded, coordinated and assigned to an incident or emergency",AMBULANCE STATION,STATE HEADQUARTERS,OPERATIONAL,79-85 EDMUND AVENUE,UNLEY,SOUTH AUSTRALIA,5061,HTTP://WWW.STJOHNSA.COM.AU,,HTTP://WWW.STJOHNSA.COM.AU,,,2018-08-18T00:00:00Z,-34.95194851,138.6085698,,,GASA_425436178,79-85 EDMUND AVENUE,0,5061,UNLEY,4,-34.95194691,138.6086123,,CALHN
542,EMERGENCY FACILITY,"An emergency management facility from which a particular agency’s resources are commanded, coordinated and assigned to an incident or emergency",AMBULANCE STATION,STIRLING STATION,OPERATIONAL,298 MOUNT BARKER ROAD,ALDGATE,SOUTH AUSTRALIA,5154,HTTP://WWW.SAAMBULANCE.COM.AU,,HTTP://WWW.SAAMBULANCE.COM.AU,,,2018-08-18T00:00:00Z,-35.012436,138.743777,,,GASA_416901049,298 MOUNT BARKER ROAD,1,5154,ALDGATE,20,-35.01261773,138.7437924,,BFHLHN
681,EMERGENCY FACILITY,"An emergency management facility from which a particular agency’s resources are commanded, coordinated and assigned to an incident or emergency",AMBULANCE STATION,STRATHALBYN DIVISION,OPERATIONAL,3 RANKINE STREET,STRATHALBYN,SOUTH AUSTRALIA,5255,HTTP://WWW.STJOHNSA.COM.AU,,HTTP://WWW.STJOHNSA.COM.AU,,,2018-08-18T00:00:00Z,-35.25971386,138.8933576,,,GASA_415472773,3 RANKINE STREET,1,5255,STRATHALBYN,0,-35.25971395,138.8933577,,BFHLHN
682,EMERGENCY FACILITY,"An emergency management facility from which a particular agency’s resources are commanded, coordinated and assigned to an incident or emergency",AMBULANCE STATION,STRATHALBYN STATION,OPERATIONAL,3 RANKINE STREET,STRATHALBYN,SOUTH AUSTRALIA,5255,HTTP://WWW.SAAMBULANCE.COM.AU,,HTTP://WWW.SAAMBULANCE.COM.AU,,,2018-08-18T00:00:00Z,-35.259823,138.893076,,,GASA_415472773,3 RANKINE STREET,1,5255,STRATHALBYN,28,-35.25971395,138.8933577,,BFHLHN
683,EMERGENCY FACILITY,"An emergency management facility from which a particular agency’s resources are commanded, coordinated and assigned to an incident or emergency",AMBULANCE STATION,STREAKY BAY STATION,OPERATIONAL,1 FLINDERS DRIVE,STREAKY BAY,SOUTH AUSTRALIA,5680,HTTP://WWW.SAAMBULANCE.COM.AU,,HTTP://WWW.SAAMBULANCE.COM.AU,,,2018-08-18T00:00:00Z,-32.792987,134.217689,,,GASA_417127110,1 FLINDERS DRIVE,0,5680,STREAKY BAY,68,-32.79285377,134.2169859,,EFNLHN
684,EMERGENCY FACILITY,"An emergency management facility from which a particular agency’s resources are commanded, coordinated and assigned to an incident or emergency",AMBULANCE STATION,SWAN REACH STATION,OPERATIONAL,NILDOTTIE ROAD,SWAN REACH,SOUTH AUSTRALIA,5354,HTTP://WWW.SAAMBULANCE.COM.AU,,HTTP://WWW.SAAMBULANCE.COM.AU,,,2018-08-18T00:00:00Z,-34.570731,139.598691,,,GASA_424195680,LOT 51 NILDOTTIE ROAD,0,5354,SWAN REACH,102,-34.56982753,139.5984945,,RMCLHN
685,EMERGENCY FACILITY,"An emergency management facility from which a particular agency’s resources are commanded, coordinated and assigned to an incident or emergency",AMBULANCE STATION,TAILEM BEND DIVISION,OPERATIONAL,67 PRINCES HIGHWAY,TAILEM BEND,SOUTH AUSTRALIA,5260,HTTP://WWW.STJOHNSA.COM.AU,,HTTP://WWW.STJOHNSA.COM.AU,,,2018-08-18T00:00:00Z,-35.25413776,139.4532779,,,GASA_415720459,67 PRINCES HIGHWAY,1,5260,TAILEM BEND,0,-35.2541376,139.4532781,,RMCLHN
630,EMERGENCY FACILITY,"An emergency management facility from which a particular agency’s resources are commanded, coordinated and assigned to an incident or emergency",AMBULANCE STATION,TAILEM BEND STATION,OPERATIONAL,LOT 502 GRANITES ROAD,TAILEM BEND,SOUTH AUSTRALIA,5260,HTTP://WWW.SAAMBULANCE.COM.AU,,HTTP://WWW.SAAMBULANCE.COM.AU,,,2018-08-18T00:00:00Z,-35.244168,139.453448,,,GASA_424175471,LOT 502 GRANITES ROAD,0,5260,TAILEM BEND,176,-35.24397911,139.4515286,,RMCLHN
604,EMERGENCY FACILITY,"An emergency management facility from which a particular agency’s resources are commanded, coordinated and assigned to an incident or emergency",AMBULANCE STATION,TEA TREE GULLY DIVISION,OPERATIONAL,LOT 220 SMART ROAD,MODBURY,SOUTH AUSTRALIA,5092,HTTP://WWW.STJOHNSA.COM.AU,,HTTP://WWW.STJOHNSA.COM.AU,,,2018-08-18T00:00:00Z,-34.83474295,138.6905314,,,GASA_424210205,LOT 220 SMART ROAD,-1,5092,MODBURY,48,-34.83448147,138.6901181,,NALHN
631,EMERGENCY FACILITY,"An emergency management facility from which a particular agency’s resources are commanded, coordinated and assigned to an incident or emergency",AMBULANCE STATION,TINTINARA STATION,OPERATIONAL,28-30 WENDT TERRACE,TINTINARA,SOUTH AUSTRALIA,5266,HTTP://WWW.SAAMBULANCE.COM.AU,,HTTP://WWW.SAAMBULANCE.COM.AU,,,2018-08-18T00:00:00Z,-35.882117,140.057212,,,GASA_425455066,28-30 WENDT TERRACE,0,5266,TINTINARA,9,-35.88211958,140.057314,,RMCLHN
635,EMERGENCY FACILITY,"An emergency management facility from which a particular agency’s resources are commanded, coordinated and assigned to an incident or emergency",AMBULANCE STATION,TUMBY BAY STATION,OPERATIONAL,8 ESPLANADE,TUMBY BAY,SOUTH AUSTRALIA,5605,HTTP://WWW.SAAMBULANCE.COM.AU,,HTTP://WWW.SAAMBULANCE.COM.AU,,,2018-08-18T00:00:00Z,-34.371573,136.104008,,URINGA HOSTEL,GASA_415113499,8 ESPLANADE ,2,5605,TUMBY BAY,62,-34.37213017,136.104057,,EFNLHN
719,EMERGENCY FACILITY,"An emergency management facility from which a particular agency’s resources are commanded, coordinated and assigned to an incident or emergency",AMBULANCE STATION,UNLEY CADET DIVISION,OPERATIONAL,14 ARTHUR STREET,UNLEY,SOUTH AUSTRALIA,5061,HTTP://WWW.STJOHNSA.COM.AU,,HTTP://WWW.STJOHNSA.COM.AU,,,2018-08-18T00:00:00Z,-34.95002692,138.6055077,,,GASA_415424196,14 ARTHUR STREET,1,5061,UNLEY,0,-34.950027,138.6055078,,CALHN
720,EMERGENCY FACILITY,"An emergency management facility from which a particular agency’s resources are commanded, coordinated and assigned to an incident or emergency",AMBULANCE STATION,VICTOR HARBOR DIVISION,OPERATIONAL,45-47 TORRENS STREET,VICTOR HARBOR,SOUTH AUSTRALIA,5211,HTTP://WWW.STJOHNSA.COM.AU,,HTTP://WWW.STJOHNSA.COM.AU,,,2018-08-18T00:00:00Z,-35.55501885,138.6200225,,,GASA_425453649,45-47 TORRENS STREET,0,5211,VICTOR HARBOR,4,-35.55498541,138.6200406,,BFHLHN
721,EMERGENCY FACILITY,"An emergency management facility from which a particular agency’s resources are commanded, coordinated and assigned to an incident or emergency",AMBULANCE STATION,VICTOR HARBOR STATION,OPERATIONAL,45-47 TORRENS STREET,VICTOR HARBOR,SOUTH AUSTRALIA,5211,HTTP://WWW.SAAMBULANCE.COM.AU,,HTTP://WWW.SAAMBULANCE.COM.AU,,,2018-08-18T00:00:00Z,-35.554957,138.619874,,,GASA_425453649,45-47 TORRENS STREET,0,5211,VICTOR HARBOR,15,-35.55498541,138.6200406,,BFHLHN
723,EMERGENCY FACILITY,"An emergency management facility from which a particular agency’s resources are commanded, coordinated and assigned to an incident or emergency",AMBULANCE STATION,WAIKERIE DIVISION,OPERATIONAL,LOT 480 DOWLING STREET,WAIKERIE,SOUTH AUSTRALIA,5330,HTTP://WWW.STJOHNSA.COM.AU,,HTTP://WWW.STJOHNSA.COM.AU,,,2018-08-18T00:00:00Z,-34.18241527,139.9868845,,,GASA_424167491,LOT 480 DOWLING STREET,0,5330,WAIKERIE,1,-34.18240971,139.9868779,,RMCLHN
722,EMERGENCY FACILITY,"An emergency management facility from which a particular agency’s resources are commanded, coordinated and assigned to an incident or emergency",AMBULANCE STATION,WAIKERIE STATION,OPERATIONAL,LOT 480 DOWLING STREET,WAIKERIE,SOUTH AUSTRALIA,5330,HTTP://WWW.SAAMBULANCE.COM.AU,,HTTP://WWW.SAAMBULANCE.COM.AU,,,2018-08-18T00:00:00Z,-34.182316,139.986914,,,GASA_424167491,LOT 480 DOWLING STREET,0,5330,WAIKERIE,11,-34.18240971,139.9868779,,RMCLHN
724,EMERGENCY FACILITY,"An emergency management facility from which a particular agency’s resources are commanded, coordinated and assigned to an incident or emergency",AMBULANCE STATION,WALLAROO STATION,OPERATIONAL,LOT 20 ERNEST TERRACE,WALLAROO,SOUTH AUSTRALIA,5556,HTTP://WWW.SAAMBULANCE.COM.AU,,HTTP://WWW.SAAMBULANCE.COM.AU,,,2018-08-18T00:00:00Z,-33.929051,137.636307,,,GASA_424169375,LOT 20 ERNEST TERRACE,0,5556,WALLAROO,148,-33.92798579,137.6372731,,YNLHN
733,EMERGENCY FACILITY,"An emergency management facility from which a particular agency’s resources are commanded, coordinated and assigned to an incident or emergency",AMBULANCE STATION,WAROOKA STATION,OPERATIONAL,36 MAIN STREET,WAROOKA,SOUTH AUSTRALIA,5577,HTTP://WWW.SAAMBULANCE.COM.AU,,HTTP://WWW.SAAMBULANCE.COM.AU,,,2018-08-18T00:00:00Z,-34.990507,137.401771,,,GASA_422065570,36 MAIN STREET,2,5577,WAROOKA,14,-34.99042965,137.40189,,YNLHN
570,EMERGENCY FACILITY,"An emergency management facility from which a particular agency’s resources are commanded, coordinated and assigned to an incident or emergency",AMBULANCE STATION,WEST TORRENS DIVISION,OPERATIONAL,11 ACORN ROAD,CAMDEN PARK,SOUTH AUSTRALIA,5038,HTTP://WWW.STJOHNSA.COM.AU,,HTTP://WWW.STJOHNSA.COM.AU,,,2018-08-18T00:00:00Z,-34.96189896,138.5431843,,,GASA_414915826,11 ACORN ROAD,1,5038,CAMDEN PARK,0,-34.961899,138.5431844,,CALHN
642,EMERGENCY FACILITY,"An emergency management facility from which a particular agency’s resources are commanded, coordinated and assigned to an incident or emergency",AMBULANCE STATION,WESTERN DISTRICTS STATION,OPERATIONAL,LOT 54 COOK STREET,PARNDANA,SOUTH AUSTRALIA,5220,HTTP://WWW.SAAMBULANCE.COM.AU,,HTTP://WWW.SAAMBULANCE.COM.AU,,,2018-08-18T00:00:00Z,-35.78996,137.260863,,,GASA_424164292,LOT 54 COOK STREET,-1,5220,PARNDANA,2,-35.78997582,137.2608782,,BFHLHN
734,EMERGENCY FACILITY,"An emergency management facility from which a particular agency’s resources are commanded, coordinated and assigned to an incident or emergency",AMBULANCE STATION,WHYALLA DIVISION,OPERATIONAL,LOT 104 ST JOHN CRES,WHYALLA PLAYFORD,SOUTH AUSTRALIA,5600,HTTP://WWW.STJOHNSA.COM.AU,,HTTP://WWW.STJOHNSA.COM.AU,,,2018-08-18T00:00:00Z,-33.02868608,137.5523417,,,GASA_423784788,89 NICOLSON AVENUE,0,5600,WHYALLA PLAYFORD,4,-33.0287041,137.5523732,,FUNLHN
735,EMERGENCY FACILITY,"An emergency management facility from which a particular agency’s resources are commanded, coordinated and assigned to an incident or emergency",AMBULANCE STATION,WHYALLA STATION,OPERATIONAL,LOT 104 ST JOHN CRES,WHYALLA PLAYFORD,SOUTH AUSTRALIA,5600,HTTP://WWW.SAAMBULANCE.COM.AU,,HTTP://WWW.SAAMBULANCE.COM.AU,,,2018-08-18T00:00:00Z,-33.028675,137.552657,,,GASA_423784788,89 NICOLSON AVENUE,0,5600,WHYALLA PLAYFORD,27,-33.0287041,137.5523732,,FUNLHN
736,EMERGENCY FACILITY,"An emergency management facility from which a particular agency’s resources are commanded, coordinated and assigned to an incident or emergency",AMBULANCE STATION,WOODSIDE STATION,OPERATIONAL,24 ONKAPARINGA VALL ROAD,WOODSIDE,SOUTH AUSTRALIA,5244,HTTP://WWW.SAAMBULANCE.COM.AU,,HTTP://WWW.SAAMBULANCE.COM.AU,,,2018-08-18T00:00:00Z,-34.953559,138.875865,,,GASA_424398632,LOT 11 ONKAPARINGA VALLEY ROAD,0,5244,WOODSIDE,38,-34.95341885,138.87549,,BFHLHN
737,EMERGENCY FACILITY,"An emergency management facility from which a particular agency’s resources are commanded, coordinated and assigned to an incident or emergency",AMBULANCE STATION,WOODVILLE DIVISION,OPERATIONAL,9A BOWER STREET,WOODVILLE,SOUTH AUSTRALIA,5011,HTTP://WWW.STJOHNSA.COM.AU,,HTTP://WWW.STJOHNSA.COM.AU,,,2018-08-18T00:00:00Z,-34.87816318,138.5342731,,,GASA_415038387,9 BOWER STREET,1,5011,WOODVILLE,0,-34.8781631,138.5342733,,CALHN
738,EMERGENCY FACILITY,"An emergency management facility from which a particular agency’s resources are commanded, coordinated and assigned to an incident or emergency",AMBULANCE STATION,WUDINNA STATION,OPERATIONAL,LOT 29 RICHARDS AVENUE,WUDINNA,SOUTH AUSTRALIA,5652,HTTP://WWW.SAAMBULANCE.COM.AU,,HTTP://WWW.SAAMBULANCE.COM.AU,,,2018-08-18T00:00:00Z,-33.050321,135.46512,,,GASA_424205334,LOT 29 RICHARDS AVENUE,0,5652,WUDINNA,3,-33.0503333,135.4650965,,EFNLHN
686,EMERGENCY FACILITY,"An emergency management facility from which a particular agency’s resources are commanded, coordinated and assigned to an incident or emergency",AMBULANCE STATION,YANKALILLA DIVISION,OPERATIONAL,81 MAIN STREET,YANKALILLA,SOUTH AUSTRALIA,5203,HTTP://WWW.STJOHNSA.COM.AU,,HTTP://WWW.STJOHNSA.COM.AU,,,2018-08-18T00:00:00Z,-35.45833098,138.3515074,,,GASA_414941500,81 MAIN STREET,1,5203,YANKALILLA,3,-35.4583422,138.3514789,,BFHLHN
740,EMERGENCY FACILITY,"An emergency management facility from which a particular agency’s resources are commanded, coordinated and assigned to an incident or emergency",AMBULANCE STATION,YANKALILLA STATION,OPERATIONAL,81 MAIN STREET,YANKALILLA,SOUTH AUSTRALIA,5203,HTTP://WWW.SAAMBULANCE.COM.AU,,HTTP://WWW.SAAMBULANCE.COM.AU,,,2018-08-18T00:00:00Z,-35.458395,138.351512,,,GASA_414941500,81 MAIN STREET,1,5203,YANKALILLA,7,-35.4583422,138.3514789,,BFHLHN
687,EMERGENCY FACILITY,"An emergency management facility from which a particular agency’s resources are commanded, coordinated and assigned to an incident or emergency",AMBULANCE STATION,YORKETOWN STATION,OPERATIONAL,7 WEANERS STREET,YORKETOWN,SOUTH AUSTRALIA,5576,HTTP://WWW.SAAMBULANCE.COM.AU,,HTTP://WWW.SAAMBULANCE.COM.AU,,,2018-08-18T00:00:00Z,-35.021227,137.606589,,,GASA_423202619,7 WEANERS STREET,0,5576,YORKETOWN,5,-35.02120179,137.6066328,,YNLHN
688,EMERGENCY FACILITY,"An emergency management facility from which a particular agency’s resources are commanded, coordinated and assigned to an incident or emergency",AMBULANCE STATION,YUNTA STATION,OPERATIONAL,LOT 3 RAILWAY TERRACE,YUNTA,SOUTH AUSTRALIA,5440,HTTP://WWW.SAAMBULANCE.COM.AU,,HTTP://WWW.SAAMBULANCE.COM.AU,,,2018-08-18T00:00:00Z,-32.581606,139.561244,,,GASA_424204174,LOT 3 RAILWAY TERRACE,1,5440,YUNTA,104,-32.58253648,139.5614059,,YNLHN
